Name,Latitude,Longitude
"gaeryanggol",37.153611,127.092222
"o ban batha",21.183333,102.266667
"ukhertsevenyavske",49.698429,23.442492
"derakawa",26.367222,127.842778
"dom-e kamar",33.198426,49.658309
"la floridita",9.2894444,-69.1822222
"goffs mill",31.7052778,-84.6958333
"krushevice",42.796111,21.363333
"chilu",39.619722,116.562778
"kankunskiy",57.625278,126.109444
"uj-shtreza",41.7833333,19.9
"bazabi",0.466667,27.333333
"tiali",14.5,-5.0333333
"ounara",31.532814,-9.547603
"muong minh",20.266667,104.783333
"aydanlii",42.4166667,25.7
"russkaya yulya",51.75,86.816667
"malaya gat",52.888762,36.014713
"adrissiye",36.1166667,37.9333333
"lianjinshan",29.963689,118.548023
"bara khu",30.062436,71.039095
"jialepu",35.706667,113.227778
"ban mon done",20.086944,101.0275
"chenfutian",28.058426,116.087927
"gund chubuthar",34.343056,74.323611
"staryy yagolud",56.733851,52.118992
"abu qal",31.4976,48.7854
"telagredja",-6.7097,111.0167
"liushanpo",18.88829,110.000878
"dhok saidu",33.719207,72.781256
"lamidangra",26.9666667,90.1
"kanandanakaha",9.251111,-5.591547
"wonjeri",35.942778,128.895556
"mbikou",8.6,16.4
"shiadeh sadat mahalleh",36.329948,52.527167
"carnawer",34.173273,66.651495
"hutabayu",3.0481,98.8288
"sajawal alkani",26.561727,67.501106
"talabosa",-1.6171,120.3113
"chalayingtzu",42.643611,119.925
"wengzhou",25.514167,110.061389
"chaze basse",44.829882,4.071337
"quianga segundo",-7.497237,15.699369
"kavakozu",36.876188,33.395883
"las marimbas",14.7833333,-88.6
"taijih",30.985458,121.557264
"t'is abay",11.483333,37.583333
"big hill",33.6655556,-92.4152778
"goth mast ali khan",27.774505,67.669305
"karachentseva",44.501667,39.574167
"bangxi nongchang",19.364166,109.10502
"moghulan-e now",33.371799,62.269268
"kor-e karez",35.626086,63.816991
"`ali morad khvah",34.1977,48.5525
"aduposo",6.0,-1.5166667
"`alamdar `uliya",34.155122,48.793235
"jatun salva",-19.95,-64.8833333
"shamabad",29.630278,53.220278
"gurgan gur sefid",34.2178,45.8455
"ruicaowa",31.591667,116.416667
"liyelmemeli",56.3347222,24.9727778
"noata",9.407809,-3.063867
"hriste",49.58619,15.775647
"titschein",50.435841,15.355569
"pusdesriai",54.9333333,22.8655556
"vencalla",-15.9,-69.7333333
"chak four sahuwala",31.81791,73.54769
"amuamuaipe",1.916667,-54.966667
"kazanli koyu",36.815649,34.757614
"pathan colony",24.700115,67.955017
"knockinarshat cross roads",52.4908333,-6.5813889
"kaohu",28.926114,115.236355
"huta ginjang satu",2.189,98.6602
"akcherino",56.21361,46.30346
"goth hasil palari",25.260437,67.538269
"oigul",7.3655556,134.5836111
"cuahuixtla",18.783333,-98.95
"osoe bekada",3.45,11.2
"jimera de libar",36.651191,-5.274121
"santa maria da boa vista",-8.816667,-39.816667
"dhindsa",32.220475,74.038195
"kochev'ye anekho",38.8205,46.3709
"snezna",50.309636,12.489462
"sitio itaipu",-23.01756,-49.875566
"yanktsantsy",54.4666667,25.7166667
"girardet",-27.616667,-62.166667
"hulkonmaki",62.4,22.816667
"horgau",48.4,10.683333
"riedenburg",48.35,13.333333
"chuluutayn hiid",47.5333333,100.2166667
"jaripito",20.816667,-101.316667
"dakhani-shakhi-taka",34.992441,67.940588
"gorzeh",26.7421,53.9628
"rayton",-25.739172,28.533384
"esh sheikh el hasin",14.4666667,32.0833333
"mir beyk",30.8586,61.3641
"pa miang",18.896111,99.7625
"novaya krasnyanka",51.3233,48.2369
"piskovici",43.5136111,17.3669444
"paotongba",29.804285,109.270329
"wopse",52.816667,9.016667
"lakhir",42.176879,47.178019
"karez-e pisand",32.921112,61.742813
"wola galezowska",50.983333,22.55
"berthelming",48.816185,7.00598
"ban yan kat",16.2,100.283333
"chacos",-17.6333333,-62.9666667
"tsurikovo",52.904282,34.836703
"cambari",-20.8666667,-64.0833333
"nyan",5.1333333,9.7833333
"chengjiabao",40.068505,123.944529
"weiganling",25.346944,112.213056
"dolny bar",47.9666667,17.6833333
"glatt",48.383333,8.633333
"los fogones",19.35,-69.9
"namanima",-10.6333333,36.2
"ban musoe huai wat rang",19.594445,99.225667
"bolshe chapurniki",48.419488,44.585759
"qomeyjeh-ye do",31.5262,48.029
"hrensko",50.872138,14.236567
"hava",38.9124,47.4522
"marantsafa",-16.1666667,45.9666667
"oshenevo",56.275029,35.644272
"kralova nad vahom",48.1666667,17.85
"ortaliq",33.7305,49.4488
"garmen",41.6,23.8166667
"molla jamati",27.136111,57.023889
"zittend",52.683333,5.133333
"bolshoy mashlyak",55.687555,50.692428
"ban nong sa nang",13.812751,99.943649
"sumberblimbing",-7.859,113.7316
"payag",29.803,91.203
"reamambu",-3.3307,119.2584
"peachtree city",33.3966667,-84.5958333
"hsiehchia",42.4,125.716667
"pibyongkol",36.666667,126.9
"harasbedda",7.0516667,80.875
"bannaya",57.083333,108.2
"puntjakmara 1",-7.208889,107.549722
"kedungbagong",-7.408056,111.264444
"macafauga",-5.1152778,29.8216667
"danningen",47.983333,8.966667
"sarqole sayeda",33.481389,68.041111
"disraghah",34.503757,65.422563
"tumunoy",9.925556,123.401667
"yosia",-15.3166667,24.6833333
"latoo",17.683333,120.45
"tabingbakod",14.8,120.95
"tsezarevka",47.0,30.3
"plei kodrak",13.666667,108.666667
"deshnoke",27.8,73.35
"goth bagga bhatti",27.93434,68.06453
"batumaseuk",-7.5168,107.484
"tacor",-7.0014,113.359
"chwabuchon",35.062769,128.457061
"spin kechah",32.104427,66.206322
"keur demba tintin",13.8166667,-15.6166667
"baloban",39.715761,33.165418
"plauskiniai",55.7833333,22.1333333
"kanghsiang",23.1,120.1333333
"loshjin",36.5877,49.3837
"el bordon",21.75,-97.716667
"pematangkalim",0.4184,101.2135
"koure",9.6194444,-13.6091667
"ap cai rang",9.086944,105.046944
"khirbat el mirsas",32.233333,35.4
"rannberg",63.383333,12.766667
"castleblakeney",53.4333333,-8.4833333
"saddiq raho",26.421509,68.11454
"ganjaragung satu",-5.121464,105.288534
"la terzana",44.933333,11.316667
"daynova",53.8666667,25.1833333
"niehchiaho",30.304743,111.295787
"wulongshangpu",41.862729,124.542822
"pugokdong",35.240556,129.095
"manshai kandar",34.984823,71.798467
"weda",13.0166667,-1.25
"sayyid musa jan kelay",31.814505,64.54939
"ortnek",45.7875,14.6872222
"cagrankaya",40.779127,40.558879
"taoshuan",27.356755,115.456603
"oran mor",53.2683333,-8.92
"glendale colony",48.8444444,-112.5444444
"liushihlipu",32.733333,115.983333
"knivsund",63.8,22.95
"san juan del centro",23.35,-103.266667
"dwelamba",-3.6,143.5833333
"mukhor-tarkhatty",49.983333,88.55
"dushembekova",55.437222,58.498611
"chuwesa",35.765,46.1102778
"shayskoye",63.866667,43.233333
"shangsiba",35.055731,103.517023
"tonuve",-17.9666667,177.7166667
"rathwala",30.422703,72.219774
"xiayangyuan",29.970338,115.791197
"ushtaganka",54.705556,60.263889
"mwansa",-2.5166667,32.9
"shekari",34.904634,68.031299
"lukwakwa",-5.2,14.616667
"zhenchang",27.264278,118.460065
"incheh",36.4841,46.823
"tangicu",43.077581,45.514565
"cutici",44.6841667,15.3541667
"siaia",-24.9447222,33.7594444
"gerwisch",52.166667,11.75
"puaukseikkon",20.9666667,95.7
"biesiekierz rudny",51.951641,19.479881
"kancherkol",23.75,89.2
"gabban",24.458965,69.405104
"sjusjo",61.15,10.7
"balkin",47.983333,45.366667
"phum dang anteah",12.9166667,105.0166667
"chatahu",26.622217,69.496317
"flotz",51.983333,11.916667
"aiyanagar",23.0666667,90.8833333
"baghanwala",31.905728,73.932491
"bandarsetia 7",3.63089,98.75122
"landskrone",-22.633333,-59.4
"ella",48.3,12.283333
"volujnik",42.6725,19.979722
"toril",15.3,-23.7166667
"irthington",54.933333,-2.766667
"isle of palms south",30.2675,-81.4327778
"toryonni",33.5,126.583333
"modinan",-6.7597,110.7879
"sotima",-11.592798,14.673238
"soganverdilar",40.231793,47.122033
"senke",7.383333,3.2
"har golan",37.641,46.2226
"kianabad",29.5457,52.465
"ragana",57.1816667,24.7144444
"georges heights",-33.833333,151.266667
"cambumbo",-9.216667,15.0
"parfenki",57.482096,48.388149
"chah gonbad-e bala",33.0201,52.9571
"mujianxia",27.758534,114.123212
"goose hollow",33.4216667,-91.8497222
"rokel",8.5833333,-12.7
"tapchongni",36.183333,127.15
"phum kompong khsach",11.05,105.0
"vairankattuwa",7.6833333,79.8166667
"endreiros",39.264468,-7.605526
"ban muang puai",16.016667,103.533333
"tar srirampur",23.3,89.9333333
"caullery",50.084757,3.372918
"los picaros",10.1277778,-70.8527778
"ban huai klang ban",18.363361,98.375278
"yttereng",71.083333,24.066667
"rdaifate",34.4833333,36.9666667
"jenak",-7.330278,111.006111
"houlilo",36.5166667,36.8
"la patrona",19.8333333,-70.8666667
"gisangazuba",-3.7258333,29.4458333
"bystrze",54.040101,18.856642
"bakissa-boukaya",5.3,15.75
"bemekabougou",12.0213889,-7.8183333
"togichon",35.701957,128.286065
"jingkang",-6.9807,109.9717
"huayllocco",-15.1411111,-71.0958333
"hisn al `uqubiyah",15.2333333,48.6666667
"rugayi",57.0,27.1333333
"triebsch",50.599939,14.205747
"sitio antonio wosniaki",-25.7524,-49.1533
"crisionis",38.983333,8.416667
"talu sardeh",28.7411,56.717
"danjia huchang",29.366152,111.479042
"neme pungu",-4.983333,21.833333
"asenkritovka",52.911111,62.296944
"tayawgyin",22.2333333,94.95
"foundodougou",8.55,-7.8333333
"gauri gopalpur",24.75,90.8166667
"raybon",31.2627778,-81.9722222
"tugach",55.1364,95.2886
"doupi doro",14.7,-13.75
"paowei",23.9166667,120.6833333
"nusay",38.442936,70.805408
"tashap",-2.8144444,-77.8833333
"tenda",-5.25,12.15
"ppaelchae",36.0739,127.253
"zuchi",32.4,130.833333
"suduleni",45.05,25.283333
"shanshanao",27.805278,112.018889
"dahugang",26.752542,115.020508
"shuira",29.795369,70.915733
"tabeta",9.8836111,-13.6008333
"miradolo",45.166667,9.433333
"shea corner",42.0416667,-72.7013889
"margaride",-6.283333,-36.833333
"godariwala",29.45232,70.801656
"jorlang hataran",2.8143,98.9602
"kinkungwa",-2.566667,26.733333
"nyulastanya",48.1,22.1
"acococha",-10.1788889,-76.3947222
"gaiga",30.4,94.0
"montonggerung",-8.6794,116.5136
"zhungeer qi",39.6475,110.859444
"santo antonio dos prazeres",-12.233333,-38.933333
"bottom creek",37.42,-81.4955556
"kilarino",55.521667,67.246389
"bruti",42.1,20.3833333
"kohneh-ye bani dar",36.972107,57.900103
"unteraltenweg",47.916667,8.166667
"fond lafleur",18.3333333,-72.7666667
"malyye zabychanye",53.4336111,31.8722222
"andranomahitsy",-20.6166667,47.5666667
"fort resolution",61.166667,-113.683333
"cipondok kaler",-7.1797,108.1904
"nan confort",18.0494444,-73.8233333
"svatonina lhota",48.678558,14.187212
"lungjahkyet",24.8833333,96.6333333
"staraya skyrla",56.4756,76.06342
"firstenverdf",47.133333,35.816667
"velke hamry",50.717417,15.296648
"panggang lor",-8.1777,114.2726
"youdengba",33.430138,107.348751
"lobamba",-26.4666667,31.2
"lowa",-3.766667,18.65
"lyzwy",51.116391,20.930287
"k'vemo barghebi",42.5516667,41.6144444
"bjorsater",58.333333,16.0
"koyonzo",0.4202778,34.4244444
"bayshintu khid",43.49,103.5244444
"mundwa",27.066667,73.816667
"suonkyulya",61.383333,31.6
"jewajewa",35.755,44.4711111
"kildoagh",54.2586111,-6.8933333
"kucuktepekoy",40.917116,39.419532
"kahriz-e khan baba khan",35.6877,47.8894
"banjar sindhu kaja",-8.684,115.2608
"kampong kesom",5.2909,103.0431
"kanlydere",36.445,36.221667
"santa margarita",-28.311956,-61.548165
"barrins",40.333058,-8.735296
"gelsenkirchen",51.516667,7.05
"rhinsmuhlen",52.666667,12.5
"memanou",7.567597,-5.123508
"khutor reshetnikov-yemanov",48.788097,41.61292
"naservand-e rahimi",33.8966,48.2415
"paryduby",51.241478,24.41388
"novy maydan",49.236619,27.570169
"ban naung bek",16.366667,103.05
"kani kumah",35.5258333,45.3827778
"zlaroua",33.864803,-6.040905
"surkhnaw",34.231292,66.522407
"tai kili",31.116189,69.545649
"johannishof",49.933333,10.85
"mukey gaamila",0.15,42.75
"velotoula",38.8,21.6333333
"zambougou",13.4,-5.9833333
"xuan pinh",18.783333,105.683333
"khambai",35.282635,69.110552
"kabat",49.880906,14.496397
"kavusak",37.783333,40.979167
"hich-e pa'in",28.8211,58.2977
"al lishman",30.6313889,47.7502778
"santo antonio do taua",-1.183333,-48.133333
"goth hondo arisar",25.493056,69.418056
"lujia laowu",30.074973,110.681225
"laguana",16.666667,120.383333
"kez",57.897855,53.715207
"hua tolgoi",38.633333,109.466667
"zara-gerda",33.233056,68.263056
"ohio",-30.966667,151.616667
"zalpir kili",32.326667,70.130278
"pustynskiy",55.0928,83.5187
"zarinkhankhel",34.105556,68.738333
"hamzaki",37.0944444,43.4272222
"randrup",55.08609,8.725023
"kemajuan tanah bukit easter",1.7486,104.0777
"haix",11.3,39.683333
"sourakhladha",35.4166667,24.05
"drapani",56.6166667,25.55
"wir wonak",36.7737,74.9888
"ngonamanga",2.15,9.7833333
"sitio ladislau narich",-26.2319,-49.2954
"zaisang",30.2,97.983333
"gujiawobao",41.490816,122.245751
"tundila",-7.933333,15.533333
"portschweiten",53.834983,19.103918
"Ðong phen",22.75,106.6
"rancho santa isabel",26.966667,-105.366667
"tondokbangala",-3.1913,120.0031
"little richmond",36.2947222,-80.7577778
"jludran",-7.439167,110.228889
"wildersbach",48.438524,7.224032
"irsingen",48.033333,10.633333
"lessowo",41.9833333,26.5666667
"neyamkan",26.3132,59.434
"thikpura",30.87508,72.566401
"banjar satu",-7.0775,112.9135
"changbaengni",39.5333333,125.6019444
"ed-dakwah",33.6905556,35.8761111
"khoruy",55.680982,47.65224
"canotillos",1.2,-77.433333
"nanzhaizi",34.174531,108.935101
"ish kusty",54.5401,57.5868
"monte saltado",-11.2666667,-66.2333333
"makhala karaveli",40.35,21.8333333
"nitoji",7.183333,3.533333
"masakura",-1.666667,138.083333
"bwerenga",0.1383333,32.5722222
"bai dialo",15.2,-16.6833333
"hacienda pachoprieto",9.318611,-73.583333
"gidan hardo",9.8,8.8
"salten",56.083951,9.569074
"cilowce",55.55,27.6166667
"parara",-2.616667,120.116667
"santa isabel viejo",31.883333,-115.816667
"knyaspinskoye",59.9427,59.6794
"ehetugahadalupota",7.85,80.4333333
"ban namthon",16.866667,106.283333
"chhohanwala",30.886571,70.897545
"esmiya",35.064291,64.12237
"mengkuying",41.283889,114.410278
"klepie gorne",50.43162,21.009433
"zidan",32.179397,66.057166
"ban nikhom thahan phan suek sam",17.282917,102.732639
"bendasari satu",-6.323056,107.334167
"qal`eh-ye molla amin",33.442818,62.465267
"la guaiserie",47.459243,2.219522
"el faqira",28.8833333,30.95
"wattang",-4.0025,119.9255
"stritesch",49.459042,18.050714
"bacharov",51.3422,38.5752
"adakata",1.7666667,32.8666667
"malkhanwal",31.366667,73.116667
"carniche bajo",-6.63,-79.3433333
"ngololiet",2.4666667,34.45
"caamaya",14.7833333,-88.6
"ara-orin",8.083333,5.066667
"bertyanka",53.187975,46.316824
"luggar",32.468538,72.091719
"tianhexing",42.613611,126.952778
"kambolash",38.6212,46.5443
"mlanda",-14.4833333,34.4666667
"saletovici",44.4394444,18.5244444
"somdet",16.704619,103.749345
"surajpur khas",26.217222,83.616111
"stilos",35.4333333,24.1166667
"ummulbasat",36.876389,39.133889
"kurang",33.371285,79.67229
"chirruala",-22.0588889,35.2855556
"rathmolyan",53.49,-6.7986111
"rauxel",51.566667,7.316667
"burranji",40.6958333,20.2688889
"hacienda vieja",9.921031,-84.506169
"casale azara",41.233333,9.416667
"drig mastoi",28.288934,69.850671
"sehnawur",34.185659,65.758111
"nglambang",-7.706111,111.000278
"shaangahar",7.083333,8.666667
"bedobo",6.7666667,16.6
"zaytseva rechka",60.6423,76.6538
"nabi jan",38.7551,46.8031
"san benito norte",16.4138,120.3538
"wangyuetun",40.439453,120.370971
"kulmelan",38.275007,41.717786
"kampong padang temu",5.708073,100.917021
"ap dong co ki",10.916667,105.083333
"villarrodrigo de las regueras",42.635007,-5.533689
"tagulaya",6.915,125.476667
"lago blanca",-27.253737,-59.231574
"genukindah",-6.9675,110.4641
"natah kulon",-7.849722,110.651111
"kabunva",5.7,-9.6833333
"pondang",1.2021,124.5892
"yangquan jiaoqu",37.936944,113.5575
"kas moul",11.4333333,103.0166667
"nkolnyinge",3.3166667,13.0666667
"sar astan",33.5347,48.3746
"xaloxtoc",19.516667,-99.083889
"la clavada",21.991667,-102.933333
"haukivuori",62.016667,27.216667
"tur'ya",58.3416667,22.9408333
"ofumana",6.1571,8.3332
"kongdongzi",24.745,113.895278
"losoncihaz",47.866667,17.283333
"ampan",-8.6311,116.4515
"banaoang",17.554444,120.456389
"tegarjati",-6.469722,108.485
"zaouiet ben ajem",32.810958,-8.544098
"baziyah",33.8072222,42.7122222
"lutek",53.533333,20.316667
"kaipongal",14.2833333,-13.8666667
"tunam",35.429541,128.478812
"cautoto primeiro",-7.906682,21.436078
"duvanyuvasu",43.4666667,28.1
"myatikovo",56.1938,46.3335
"wengern",51.4,7.35
"coillte mach",53.85,-9.0
"kot peju",32.414257,73.769941
"gouama",12.45,-4.4333333
"wapomaroe",-5.4,123.05
"chappan ki jhok",32.077869,71.054863
"powti",31.869945,67.028013
"hammarglo",57.066667,16.5
"wongumam",37.106111,127.040833
"qal`ah-ye bashayr",33.464451,68.508965
"pupyongni",40.8419444,125.9677778
"supao",36.646944,113.5875
"murutenge ihalagama",7.4333333,80.1333333
"ban lung khwao",14.716667,102.3
"lung tai",21.666667,106.6
"longzaling",34.083333,76.816667
"xinqiong",20.016834,110.393676
"dorogobratovo",48.353363,22.903289
"badjalinggai",3.1604,99.0068
"herzemi",37.633333,40.283333
"focuri",47.35,27.216667
"ermine",37.1211111,-82.7922222
"shangkunshen",22.9833333,120.15
"goth hussain bakhsh gaho",27.266583,68.599874
"nyietaghe",7.2804,8.8066
"aine fakroun",35.9763889,6.8755556
"tinggi raja",2.9001,99.5704
"waigao",24.671111,118.688889
"baze",41.6319444,19.9291667
"qabilat ash shi`afiyin",32.5733333,13.8811111
"kijipoa",-3.8333333,39.8
"drobukshchay",55.7,22.2833333
"tiersanville",48.184635,2.674537
"bir enzaran",23.8833333,-14.5333333
"ban don ta luang",10.266667,99.15
"dyedougouso",8.380818,-5.769719
"siwongi",-1.6249,119.7842
"bebrininkai",54.6833333,23.2833333
"digidok",4.2516667,33.4577778
"kafr bjrn suliman",30.6666667,31.35
"pirgos-kokkinos",39.5627778,21.7427778
"gakhany",53.045556,104.868889
"kulyaba",56.521513,77.190392
"kagumoini",-0.5333333,37.1
"poum",41.2816667,20.7113889
"kurort talgi",42.872932,47.460962
"ketapang wetan",-7.705833,109.36
"podsoseno",54.937194,36.211664
"paramoda",-17.2802778,36.7569444
"pesmayo",20.825,-98.283333
"ban chang sam sian",13.994889,100.023167
"myza krimuldas",57.1669444,24.8269444
"linkside",34.4605556,-79.3244444
"ikalouchene",35.118566,-3.690013
"titih tengah",-8.6571,115.2154
"ka¿ax",43.641111,81.87
"bianba",30.8,94.883333
"ait amza",31.277845,-7.501207
"osinovika",57.769937,34.846804
"comunidad momo",-16.0666667,-68.85
"vohitsantaka",-24.5,46.2833333
"zakila",3.85,23.65
"ban xenoy",20.816667,102.183333
"verkhniy leun",56.3,56.833333
"somgande",12.55,-1.85
"ndo-kuassikro",7.034744,-4.733754
"mullenberg",51.066667,7.2
"kandayakan dua",-7.1379,108.7791
"chifuka",-13.4,32.7666667
"ankamaty",53.928342,19.280407
"kusadak",44.399722,20.803333
"dahan-e ghighonak",34.647675,66.195282
"el mazraah",33.8333333,35.6
"kitulaan",7.266111,124.783611
"highpoint forest",33.8833333,-84.3638889
"sungaitirem",-6.118889,106.956667
"khan shaykhun",35.4333333,36.6333333
"caermarthen",51.859167,-4.311667
"puwakgassara",6.25,80.6666667
"kulgala",61.816667,36.783333
"marambah",-7.0503,112.8734
"ochakovskiy",46.345686,32.008281
"sopresa",10.89263,-72.900203
"saint-martin-du-var",43.818122,7.190302
"shunhualou",20.613889,110.088056
"huntongo dusun 2",0.5374,123.1203
"karache",10.9666667,-14.9333333
"roi hauk",6.65,101.183333
"rumanwa",7.4513889,29.6186111
"caserio casas de quilis",38.983333,-0.55
"ranikaytezay",32.703056,69.340278
"bekondjo",8.6166667,16.9666667
"ikot uba",5.223055,7.859439
"trzcianiec",49.590852,22.493147
"krousourati",40.8666667,21.6166667
"kydantsi",49.571348,25.867692
"at tashi",33.395,43.2827778
"khvorshid",37.3775,46.9237
"(( shmil ))",41.2333333,20.1666667
"nurpu",33.90475,73.273616
"sekani",35.8655556,44.4016667
"halq dost muhammad",27.8925,63.5104
"adamovo",42.9666667,25.3166667
"rodygi",58.102168,50.708363
"redezha",59.098222,29.104128
"lyutizh",51.904789,31.426129
"almalytala",40.659985,45.684936
"rosslavka",54.9459,71.032237
"camosso",-14.626372,17.651807
"sorowijan",-7.71,110.4875
"pingdo",36.466667,126.55
"okobamachi",32.15,130.8
"engelmannsreuth",49.816667,11.65
"kronabittedt",48.4,14.266667
"dhok fateh khan hamsal",32.698718,71.875249
"prioleau",33.3641667,-80.1958333
"goodhope landing",32.9655556,-80.4186111
"xiwangzhuangcun",34.128746,109.193029
"kisenen",50.483333,51.2
"al-salt",32.039167,35.727222
"nyeribungan",0.15,115.083333
"sitio leonardo dreviniok",-25.835,-49.3848
"daomao",18.94819,109.48259
"solova",52.416434,32.636664
"savino brdo",44.4047222,18.6783333
"el ojo del obispo",27.533333,-106.033333
"faleata",-13.8166667,-171.7833333
"la roche-clermault",47.137454,0.205968
"mesa de poleo",8.2738889,-71.6144444
"villa bisono",19.5666667,-70.8666667
"chiakou",33.896667,117.059722
"perray",47.066667,0.492285
"abara osimili",5.970436,6.70024
"corregimiento galindo",8.288247,-74.586669
"grashevo",41.9666667,23.9333333
"gadki",49.741328,21.444575
"kampong saleh besar",2.683333,111.3
"kasrisahin",37.785833,41.015833
"koeling",-1.833333,112.916667
"aleksandrow maly",51.014288,21.465059
"fulga de sus",44.9,26.45
"wola debowiecka",49.65,21.2
"sorkhjuy",35.35599,68.157776
"tagassaare",58.6263889,25.1969444
"chir",35.2155556,6.0977778
"ladang pangoi",4.683333,101.483333
"la verbena",-28.65,-70.666667
"neon elevtherokhorion",40.4483333,22.5869444
"rhadowala",30.707921,71.522091
"gur kilich",26.683333,60.033333
"eden lodge",13.1333333,-59.6
"mrhartine",36.5333333,38.3333333
"alberchigos",31.266667,-115.65
"kar kenar",36.393584,52.591256
"sonadia",22.2125,91.1077778
"callahuacan",-6.5666667,-75.85
"gavazli",36.008,45.4735
"netiv lah",31.687548,34.982724
"sharshada-russkaya",56.230687,52.932987
"acapetlahuaya",18.416667,-100.066667
"sebisel",45.883333,23.566667
"eminefendi",39.7,33.55
"sanghanggok",37.7651,128.1758
"xuzuitou",30.838889,116.997222
"skobachevo",53.873584,37.025806
"kiwamal",38.1158333,126.0791667
"segrie",48.825836,-0.407608
"jouhamane",35.6,37.1
"cholmak",35.5,44.9833333
"dunu",0.9533,122.6271
"tevyashevo",49.604167,39.038611
"shuguang linchang",42.25017,127.697179
"findikpinaryaylasikoy",37.166667,34.683333
"razvaliny avsarlu",39.1330556,46.26
"zaoxitang",29.231531,119.92162
"kamal arain goth",25.224968,68.859607
"takuapah",8.8705,98.343834
"geyarabas",39.385521,46.457497
"beiwangshan",34.020077,105.437801
"gadmeh",33.8207,46.5
"thebyuchaung",17.5833333,97.45
"birahimerkandi",23.6333333,90.5666667
"basalem",7.739444,123.078333
"mihonbashi-dori",35.666667,139.783333
"waixiyuanwu",28.965812,117.353506
"kasrat faraj",34.9166667,38.9833333
"rancho pozo de dona victoria",32.233333,-114.033333
"catuvo",-12.483333,22.55
"banjar sakeh",-8.5591,115.0823
"loreto mocagua",-3.846667,-70.219444
"`ayn khalid",25.223333,51.451667
"kamush",34.814287,69.795377
"bagh-e maidan",35.221562,69.213967
"lafayette shores",36.8844444,-76.2658333
"hresa",43.8780556,18.4972222
"guidan hagu",12.147446,6.574503
"kilangpayan",-7.2658,108.2737
"banjar nyanglan kaja",-8.4578,115.3979
"monte do falcao",38.845848,-8.173462
"canfornal",37.334413,-2.325565
"trebovci",44.8908333,16.7794444
"saint-hilaire-le-lierru",48.108499,0.53836
"bublayan",11.6232,124.8714
"jatiamba",-7.721111,109.488889
"'t hoeksken",51.2,4.35
"bolshaya gosteva",51.8123,35.8369
"nersac",45.633333,0.05
"north char airkandi",23.0,90.2333333
"yahyapur",31.439444,74.068889
"ziyipu",24.4736,116.694395
"salaba",12.2666667,-14.6
"latihan",-6.2156,106.8851
"rahart",47.871218,1.068149
"kattilainen",60.566667,27.4
"nogougou",-14.9333333,166.5833333
"djmali kioi",40.336928,26.565378
"south suburban",22.499444,88.304722
"bodziejowice",50.612414,19.617167
"sloboda osinovka",49.405479,40.149471
"felidia",3.467569,-76.63023
"siltar",36.057802,66.218921
"bailanzi",38.750431,121.210707
"rimmila",60.983333,24.05
"szak",47.557495,18.16474
"privatovka",51.746915,26.038997
"tanyalawdo",18.5833333,97.1333333
"wan hsi-hpu",23.5666667,98.7333333
"kushin",43.3833333,24.5833333
"netaar",-2.566667,140.55
"herminadorp",5.1666667,-54.35
"hidirli",40.309559,27.806167
"grouse",43.6883333,-113.6116667
"granchin",34.351389,126.475833
"dhamrahi",32.718088,73.184123
"tepetarla",40.720038,30.081648
"ajipamanggilan dua",-5.003659,105.103477
"rakulik",45.7408333,14.1302778
"theotonio",-8.916667,-64.0
"kampong namukan",5.35,116.633333
"wujia puzi",40.052192,122.368335
"bokaya",3.2,20.633333
"yakarimendelli",39.193829,40.641064
"marstein",62.45,7.85
"ciudad bolivia",8.3569444,-70.5675
"abfalter",47.791111,13.076111
"jangsib",33.85,94.95
"molingkuan",31.833333,118.833333
"xianyanzhen",27.877222,120.685833
"banjar putus",-8.5448,115.4258
"mcraybli",6.1666667,-9.7
"hagar banga",11.5,23.0
"khan sardar kalai",32.819952,70.768568
"high acres haciendas",33.5652778,-117.0275
"ghorani",29.118185,67.819505
"keyeni",57.9538889,26.2797222
"chiendent",18.5047222,-73.7822222
"koregod",57.783333,84.216667
"hesar bazjan",33.85547,49.547911
"remes",-27.855874,-64.534326
"huangshixu",21.833934,111.685246
"wan a-mat",20.15,99.3833333
"kurabka",52.130022,20.164071
"kuli-madat",34.474167,68.081667
"abunai",-1.833333,-66.55
"arjenavand",34.346,49.3383
"imsuri",39.7005556,125.1719444
"bab tangal-e-sofla",30.732222,56.7175
"bourjolly",18.4913889,-73.7405556
"muhajariyya",12.0,25.6333333
"geheren",50.966667,5.533333
"kutunas",12.1991,10.3265
"akhalia",23.7333333,90.6166667
"north hampton",40.9311111,-89.5388889
"rozhalovo",57.981918,37.607505
"hammadab",15.5333333,32.5
"ashlim",30.5047222,31.1227778
"garczyn duzy",52.27164,21.778789
"wadui gongshe",29.6,97.4
"bentrokan",-7.483889,110.425278
"bhinda pacharan",29.65,72.183333
"sinaband",38.759167,48.370556
"kaningara",-4.5666667,143.35
"canhilbus",9.586944,123.792222
"luhsiang",31.524167,120.743889
"yumysh",58.0,53.366667
"wonsamhwa",36.968,126.5938
"nugape",7.05,79.8666667
"zunguza",-22.0661111,35.3163889
"hafezollah beyg",34.777516,63.518779
"latarabad",29.206111,60.419444
"kapalaran",8.107,123.7413
"ap thoai thuy",11.2,108.55
"pozos blancos",-19.9833333,-62.5833333
"tarkhan",42.3113889,77.8847222
"ban klong yong",13.83275,100.280583
"cienaga de allende",-31.741788,-65.112875
"banter",-7.441111,110.348333
"valley centre",51.8,-107.85
"ban phang 3",6.903111,99.943
"suttontown",35.6055556,-83.0461111
"atamkala",33.649021,69.277153
"strugorka",43.983333,131.666667
"chalabak",34.637833,66.408768
"verkhne-pikhtovka",59.15,54.05
"little otter",38.6861111,-80.7638889
"prinolofos",41.2,24.3833333
"paiksi",58.6061111,27.0941667
"ban bu khi lek",14.916667,102.95
"zhuyuanzhuang",33.377812,119.299901
"dusun tiga wanggabaru",0.5255,123.9685
"medhousa",41.3333333,25.05
"kamankole",14.45,-11.4833333
"kepezli",36.678889,39.253333
"bogoyavlenskiy",50.8281,59.73
"itubera",-13.733333,-39.15
"klisidhi",35.1166667,26.2333333
"qishlaq kuhnah",33.396933,65.018158
"domakindan",18.6,96.45
"umanday oeste",15.9335,120.21
"tazirkah",36.553669,10.838684
"maanselkya",60.533333,30.2
"coracepe",27.6,-110.25
"dalay gunoy khid",46.8,103.4666667
"butterleithe",50.516667,12.25
"rancho carrizal",26.133333,-108.766667
"sao miguel de vila boa",40.705894,-7.754255
"nathu aujla",32.181923,74.616156
"kobl",47.901111,13.033889
"maarret el mesrine",36.0166667,36.6666667
"gashchyunay",56.1441667,23.6261111
"murchal'",34.062157,70.796738
"xiawazicun",43.042086,130.182708
"san jose del rufugio",25.283333,-101.383333
"hinterwasser",49.639887,16.519642
"kosivska polyana",48.004523,24.112453
"zalaszombatfa",46.637983,16.443619
"mornington",-16.665091,139.179489
"beureumbeungeut",-6.174444,106.273056
"ban kamphaeng",15.107417,104.113139
"umm lahaf",36.2316667,40.885
"sareia",-16.21,37.7427778
"karlovice",50.565103,15.216027
"kom `abbud",30.8991667,30.8238889
"douar chahaimat",32.523306,-9.16198
"ban tha maphrao",8.095389,98.354667
"uchas",53.194167,88.518056
"luzishan",30.4,118.65
"qianqing",30.125055,120.405125
"boddington",-32.800709,116.47522
"lindsjon",62.166667,16.483333
"tropoviq",42.673611,20.352778
"ponderosa estates",33.8888889,-84.8355556
"roukela",22.2,84.883333
"bonekune",8.1666667,-10.55
"samarozila",44.8244444,15.0541667
"oberwildenau",49.6,12.116667
"lilleng",68.616667,16.55
"chak five hundred twenty-three eb",30.17436,72.586618
"homa lime kowuor",-0.4333333,34.4666667
"foldroyhamn",59.797222,5.301667
"dezavand-e sofla",35.0995,46.5575
"yuangongdu",29.706237,111.072747
"goueye",15.6833333,-3.5
"coatqueveran",48.216667,-3.65
"chefe mucaveia",-16.5261111,39.0205556
"nunsakar",-9.357778,124.874167
"shalimar-6",33.7322,73.0685
"korank",35.033245,70.278046
"long co",23.366667,105.3
"kasirskoe",54.927334,20.691818
"hirbekaplo",37.237778,40.941389
"cserhatmajor",47.383333,17.183333
"miereckie",55.2,27.6333333
"kuthala khurd",32.511751,73.239976
"echira",-0.9833333,9.3833333
"ndanomango",-8.45,118.5068
"brishchi",56.604167,31.749444
"buhangin mahaba",7.286389,122.819167
"wiege-faty",49.882319,3.71813
"thiong stung",12.8166667,103.4666667
"krasnyy luzhok",57.527273,63.360168
"tormanen",66.366667,24.2
"akviligjuaq",68.533333,-89.816667
"herbine",33.8211111,-92.0338889
"sincha gobudu",12.5166667,-14.6
"krasnoradenskoye",46.25,32.766667
"fieffes",50.078198,2.228267
"mount helen",-37.62606,143.876846
"bolarghu",37.9573,44.8956
"soengsang",-4.483333,104.65
"mulayim",38.012538,32.083161
"san jose bavicora",29.25,-107.75
"garangai",30.942721,67.195118
"savostyanova",54.634919,33.4813
"aznan",12.433333,38.666667
"altenrain",50.55,9.85
"ne liet",22.1,106.6
"alt kentzlin",53.75,12.966667
"greycourt",41.3619444,-74.2558333
"el pachon",22.616667,-99.05
"nikhurdi",23.5166667,89.85
"bootagolla",6.8666667,81.35
"niskovitsy",59.605266,29.726115
"mittellangenbach",48.583333,8.283333
"lyubinka",57.472418,34.919544
"la brillante",8.156111,-73.268056
"prechtleinschlag",48.533333,14.383333
"tjimurah 2",-6.905,107.265278
"darah-ye bayd",34.653157,68.307778
"grand houdron",50.083333,4.866667
"ejido nuevo leon",32.409444,-115.188889
"mandango",3.883333,30.133333
"ol'dzhatu",36.72084,67.626763
"molenaarelsthoek",50.866667,3.0
"gyuarmajor",48.6,20.8666667
"varasau",47.15,22.266667
"osterhusen",53.416667,7.2
"kaluta",35.036774,69.287746
"mengxisi",29.75,111.816667
"siwenon",-7.5075,110.003611
"chah-e birish",29.617473,60.181719
"sklad tretiy",56.02,86.0513
"pasaru'iyeh",30.495063,57.325533
"xirikon",39.4175,21.1097222
"tungan wada",9.015278,7.212222
"har'el",31.809062,34.948653
"mokoy",10.1666667,13.9
"west charadi",22.6333333,90.35
"pungudutivu",9.5833333,79.8
"nanluhsu",23.495278,110.074722
"ciknis",39.7,40.333333
"leimingshih",19.557177,110.31991
"ky loi",13.366667,108.983333
"na ogalcah",46.045,13.8963889
"lonche",45.5366667,13.8880556
"twitdul",37.178611,126.825278
"biretwo",0.55,35.55
"gorodnovskiy uchastok",54.75,40.633333
"glimsholt",57.421158,10.213676
"shanchutzu",42.763333,118.87
"barauskine",54.7333333,23.8
"maesmynis",52.133333,-3.416667
"ban hua fao",14.383333,100.883333
"dongping nongchang",19.055833,110.303056
"chiva de morella",40.658807,-0.125412
"sefidbid-e sofla",34.314493,66.465314
"bab kani",29.956991,66.748629
"vechrik",41.917095,47.961841
"xapane",-15.0494444,39.8413889
"aangel",7.366667,8.583333
"kouampone",7.711944,-3.365278
"ropice",49.706425,18.61524
"falakoro",12.1333333,-5.0666667
"studenaya yablonovka",48.714107,44.361954
"krajan sumbermanjing wetan",-8.2672,112.692
"nadbory",53.31826,22.439148
"tongziwan",29.980003,118.776972
"kampung serakek",2.6262,102.7835
"l'alcora",40.066667,-0.2
"akinola",7.633333,4.033333
"qaryat at ta`an",33.1166667,46.1
"horse crossing",34.5844444,-111.1297222
"huwwarah",32.146944,35.256667
"donja vrbica",42.9425,18.4761111
"khadki makhle",41.7166667,25.3
"gasiorowice",50.562152,18.351913
"aq chay",38.3918,48.6613
"veres",46.466667,26.483333
"sint-gillis",50.816667,4.333333
"berekole",11.3666667,-8.9333333
"likhova",58.04152,28.304383
"dunns creek",-32.633333,151.633333
"rayevski",42.383333,70.366667
"munkip",-6.45,146.75
"naesby",56.406753,10.8
"runu",35.628737,69.290348
"nanchung",29.423611,121.789722
"thanh tao",21.166667,106.35
"bremoundjou",5.7833333,20.65
"wola golega",50.461517,21.566096
"okrigo",5.252725,5.843552
"aluak",-5.0666667,145.7166667
"dayvrash",33.5734,47.6898
"vennyutetsi",42.934444,119.023889
"yaodaozi",41.086844,124.750148
"cijeumit wetan",-7.1772,108.1203
"madagwa alhaji",8.416667,8.466667
"hsiawangtsun",38.153333,113.260278
"saray-chekurcha",56.0861,50.006
"roiles",43.35,-5.533333
"lisi ogon",53.127111,17.88129
"kultukri",22.35,89.0666667
"novo-osetinovskaya",43.703786,44.393392
"pawutchaung",12.9333333,98.7166667
"sainte-blandine",48.35,-68.45
"goth mira khan",28.851076,68.126617
"gerola alta",46.05,9.533333
"kahna bajar",33.369443,72.976921
"gudul petaw",33.328281,67.970886
"liangmupu",26.366389,111.710278
"gowo",-7.0637,110.2531
"zouwerstraat",51.05,3.95
"popudiny",48.7833333,17.2166667
"passa kai",9.15,8.816667
"hanna mari",33.997725,71.568998
"badouyuan",25.768889,111.545556
"suranhal",34.041667,74.6625
"komoukhovo",55.384205,48.026488
"lengwa",-14.7833333,27.8833333
"sankal",23.1,79.35
"siqingeni",-30.625775,29.113379
"darvazin",35.3608,49.0758
