Name,Latitude,Longitude
"isoma karion",37.4333333,22.05
"char dehunda",24.4833333,90.9
"tabase",-30.524965,28.327818
"stensjo",57.35,16.466667
"morselj",42.305833,20.566389
"akpenembel",7.2529,8.7614
"haji ismail hot jo wahan",26.48244,68.084009
"sooudanga",13.7166667,15.7
"man niu-chang",23.7,98.6166667
"kpou",8.9833333,-11.8166667
"glinovo",58.916667,34.8
"tanakadumuka",-9.6317,119.2794
"fansen",61.116667,16.233333
"chah bhirkiwala",30.096304,71.33957
"demnevo",56.867816,39.49218
"jda",13.6666667,-14.9333333
"merkstein-worm",50.883333,6.066667
"znaktia",31.997316,-9.137453
"rainbow hills",41.9194444,-88.37
"kotow",49.527901,20.899125
"calbecht",52.083333,10.383333
"san jose ayotla",19.916667,-98.05
"yingwuhsi",28.054444,108.185556
"resle",47.666667,10.883333
"mkule",-14.1,33.7833333
"ban kounleu",20.183333,102.183333
"phumi thma samlieng",11.4333333,104.5
"sukakarangan",-2.383333,103.783333
"zoulla",10.4,15.2833333
"jumma khan baloch",26.286618,68.743423
"inarigol",41.8213889,129.7044444
"jarochow",52.182655,19.177351
"matang neuheun",5.0158,97.6966
"zarzular",14.4833333,-87.1
"vergoja",40.0066667,20.0088889
"`algeh faqih",34.4224,46.4683
"la queseria",-34.65,-71.816667
"san poolo",-15.4,-67.9333333
"sannac",45.202624,3.675352
"verjani",41.4525,19.7861111
"driptschewo",41.9833333,26.2166667
"new jasper",39.6541667,-83.8194444
"m'beblala",9.953097,-7.138076
"arakilise",40.966667,42.616667
"les charmes",-20.5833333,164.4166667
"yuliu",30.227794,114.865954
"tuiloplatzan",14.816667,-91.633333
"buli-ketjil",-0.083333,127.266667
"alt tabor",49.377523,14.702868
"shavatki-bolo",39.4022222,68.8841667
"kayikawala",6.3666667,80.0166667
"herbe",44.69224,-1.236366
"yttersbenning",60.25,16.216667
"delaney corner",39.2991667,-75.7475
"bushbury",52.616667,-2.116667
"boneh-ye ghalim",31.8896,48.9845
"su gavabor",36.965795,50.274937
"altenroda",51.25,11.566667
"sokoljane",41.75,25.45
"ban nong nam prieo",13.987351,100.106383
"gouaramba",8.032545,-6.980332
"medvalakay",55.9,23.6666667
"osinova slobodka",60.5993,47.1361
"arters mill",39.665,-77.0719444
"saint-jean-port-joli",47.2,-70.266667
"acha-kaindy",41.1422222,75.8111111
"sitio orlando paiva",-23.877182,-50.302754
"cendo kidul",-7.0281,109.9181
"new campbellwood wye",43.6152778,-75.7175
"wan nammawngno",21.9666667,99.25
"mitochuang",22.7833333,120.2333333
"altinyunus",38.321944,26.343611
"telukbuyung utara",-6.218056,107.006389
"kiarakoneng kaler",-7.2074,107.922
"goth muhammad yusuf magsi",28.0795,67.6319
"aas",55.918161,9.970663
"depoltovice",50.294038,12.814657
"hales corners",42.9375,-88.0486111
"sar keril",33.365972,66.7169
"wasilew skrzeszewski",52.422999,22.512129
"mahall yahya `umar",15.0022222,43.5316667
"pinglin zhen",31.415451,113.605363
"kot ganda singh",31.889167,74.12
"khanlanly",39.971279,46.176417
"mommark",54.92128,10.041433
"dikbedda",6.0833333,80.1666667
"umahuiri",-13.8333333,-72.2
"kolungtsun",31.393855,121.146781
"pataoual",10.4333333,14.6666667
"caserio mareny de san lorenzo",39.216667,-0.25
"novo-baydarskaya",54.939444,65.858889
"dalmah",25.8,45.266667
"kafr nawwar hanna",30.5833333,31.4
"mourakawer",-20.15,169.8333333
"docai",28.901,88.601
"kabasaran",7.883333,124.033333
"keur ndiam ndiaye",14.85,-16.75
"nashegu",9.6166667,0.0
"kyakahi",8.34016,-5.965186
"albanchez",37.28361,-2.182291
"glogowez",42.9666667,26.1333333
"umkol",37.483333,126.833333
"kharkhand",18.885278,72.911389
"badalzai",30.138865,66.061066
"tchulo",-17.1202778,35.0694444
"katekhsar",37.381119,49.656614
"old beaver",44.4105556,-112.1963889
"eskihamal",38.879903,37.475908
"planina pri cerknem",46.1166667,14.0
"spring's",-32.461584,28.063725
"bastau",53.933333,67.6
"hatamuna",8.0166667,80.9666667
"xok",39.376149,45.171557
"gnezdovo",53.1166667,24.35
"dhok larian",33.059433,72.696901
"gambuhan",-6.8778,109.2098
"huangdawan",36.289804,107.961085
"degeisab",14.05,33.1666667
"sidi ed daa",29.1833333,0.2
"gamischdorf",47.1,16.25
"staryy zelenyy ostrov",55.893245,38.798994
"voy Ðam",21.683333,105.233333
"santo antonio dos milagres",-20.3,-41.666667
"qal`eh masumabad",33.504404,60.464366
"shahrak-e mohammad ebn-e ja`far",32.3182,48.362
"badjao",6.0666667,17.4333333
"ringtown",40.8586111,-76.23
"kaminka",49.40346,36.410551
"aynsuc",38.000263,41.9625
"plymton earle",50.383333,-4.05
"marah ruhana",34.15,36.1333333
"gazahio",6.244094,-6.354565
"karondoran",1.163,124.852
"chak two hundred sixty-nine",30.142354,72.789159
"ruanchao",28.737732,119.672088
"weilongwu",23.23028,114.419446
"yusguare",13.3005556,-87.1138889
"kulun qal'ehsi",38.033333,57.15
"banjar badegede",-8.5156,115.0034
"tierradura",3.234602,-76.303426
"kampung kuala betis",4.9014,101.7896
"paniroang",-5.856,120.5169
"phumi baing pit krang",12.6166667,103.7833333
"satari",38.3,128.0333333
"sangime",-7.866667,21.033333
"new muniwara",-3.7666667,143.6833333
"boldovka",52.46069,32.705126
"scharteucke",52.45,12.083333
"cheragh veys",36.169,46.0942
"likouresi",37.65,21.75
"lalahpur",32.017775,74.023744
"zoloto",57.132197,61.846582
"ploutokhorion",37.6166667,21.7166667
"knibbs pen",17.9833333,-76.9833333
"qal`eh-ye wakil",34.276376,62.092049
"palihan",41.516667,118.75
"kuchu-kisklak",38.75,66.4166667
"ayjan",34.2837,49.2985
"siakalubwa",-16.95,23.9333333
"kwihigiro",-4.2283333,29.9336111
"tienshanerhchang",44.0,89.766667
"sprouses corner",37.5291667,-78.4922222
"phum kan trap",13.2,103.9666667
"uykany",61.9,158.416667
"tiayi",7.05,-9.0666667
"kystaatym",67.332778,123.335278
"makangawa",12.35997,8.953172
"unterlichtinghagen",51.066667,7.433333
"mindi 1",-6.235278,106.486389
"edwaki",-3.9,141.7833333
"chelukan bawang",-8.1952,114.8347
"verkh-pyankovo",52.0378,86.91
"foloa",14.3377778,5.2725
"goyamara",21.779444,88.087222
"qaderi",34.699797,45.823486
"ljekova",42.6561111,18.2686111
"jartudah",37.086493,58.287201
"pataringa",11.008133,122.431005
"canolo",38.316667,16.2
"suchocin",51.887546,22.502408
"verkhniye lati",43.0333333,41.4833333
"wootton bridge",50.716667,-1.216667
"borj ennbaza",36.650278,10.245
"pangkawng",22.1666667,97.4
"nakhl-e nakhoda",27.1941,56.357
"sitovka",52.674092,39.689564
"ban chatsan khao rang",13.605556,102.402222
"steventon",23.65,-75.95
"naname",32.971667,129.1
"selisa",38.1833333,22.1333333
"tsaofang",26.063291,116.617077
"vyatko",58.816667,41.45
"glawazi",43.2927778,23.3805556
"tanlu",25.026667,117.421389
"karmala-adelyakovo",53.850264,51.399188
"cercadas",39.647871,-8.171811
"akhtarkheyl'",33.064415,68.065414
"phumi taik s'oy",11.4666667,104.3833333
"touchte",31.240268,-7.634908
"kos-aral",49.883333,70.85
"bloeboerlimbangan",-7.0357,107.9829
"belokang tiga",-6.211111,107.169722
"badryashevo",56.254044,54.713656
"carapata cenega",-21.75,-66.95
"hancunmiao",30.63269,120.353706
"neure",46.746669,2.98162
"lesnica gosie",53.066667,22.35
"ndiah",14.8666667,-16.1166667
"borghetto santo spirito",44.1,8.233333
"gridion",54.559917,41.617991
"kolal ma",26.861476,59.064408
"svedriskes",55.4833333,26.1166667
"golima",13.366667,37.95
"man nang",25.1,97.5666667
"miaopachang",30.602642,107.097219
"karaynov",53.758611,35.275
"ban taoieng",16.353611,106.228333
"bokatovo",54.458123,35.78797
"douar mehellet",35.5288889,0.7883333
"candeleda",40.155214,-5.240455
"sinjaeindong",37.995,126.35
"arth",47.06337,8.523485
"bekouenkouassikro",7.2,-4.316667
"motashilikha",57.230374,35.280526
"djimlilo",12.8333333,14.5833333
"kalkune",55.85,26.45
"tumala",58.5369444,23.0416667
"subida de las mayas",10.205,-66.9277778
"sebaco viejo",12.85,-86.1
"baryki",53.0294,33.5016
"purimulia",-6.6778,108.5418
"jasika",44.2541667,18.0013889
"wad al mansi",14.3666667,32.8166667
"nammawn",20.25,96.9833333
"lazdini",57.4333333,26.1166667
"seyhahmetli",39.094722,32.239444
"erbray",47.654915,-1.317833
"rakovine",42.491667,20.511667
"kampong sinansag",6.033333,116.333333
"bombeck",51.983333,7.35
"daulatpur qalandar",32.155085,70.674022
"phum prey phlang",11.5166667,105.4166667
"zechenbach",50.35,12.4
"nan biton",19.0166667,-71.9166667
"vignal",44.536291,0.932667
"hoisbuttel",53.683333,10.183333
"goth hindal thebo",25.356959,68.514269
"miaganukalay",34.263332,70.345871
"felipe cerrillo puerto",19.675,-87.9625
"phum krang arei",11.6,104.6333333
"bralic",42.554167,20.368889
"bihito",-1.420278,28.866111
"pan-an",8.219167,123.840278
"pedro p. caballero",-25.5,-57.016667
"xujia changzhuang",32.432011,121.078849
"poreby dynarskie",50.317756,21.818846
"khela gul garhi",33.9072,71.764878
"joelepa",58.4141667,22.7702778
"bilgewala",29.761111,71.670833
"ban ai ku leng",6.112278,101.580333
"nagtupocan",17.383,120.479
"qizil aiaq khord",36.862627,65.685859
"qinghekou",40.573453,123.512934
"jiacha qu",29.101,92.701
"kizilova",39.492496,36.645319
"soiea",9.25,0.3333333
"sorle",62.883333,18.333333
"catabola",-12.15,17.283333
"dinghe",33.730884,119.893469
"finca 41",9.4666667,-82.5166667
"ijesha",6.90974,3.770914
"sdey-ya'aqov",32.69,35.138611
"mara gubed",6.033889,43.421944
"martinca",46.15,18.683333
"shur-kuduk",39.5,66.0666667
"nyinabunuso",5.9,-2.4666667
"cabracollo",-17.3833333,-69.7333333
"chassany",45.308955,2.710814
"dauginiai",55.7333333,23.1333333
"seribujanji",2.9609,98.7182
"kustets",58.9374,38.1513
"tuomaala",62.433333,30.3
"tjesak",42.402222,19.185556
"padshakhel",34.356667,68.924722
"thalussen",53.789078,22.241969
"pai sang",32.591137,66.731946
"tapizquil",15.1666667,-86.8833333
"cherrapunjee",25.3,91.7
"lumber city",31.9291667,-82.6797222
"jiayuguan",39.816667,98.3
"ikot ada idem",5.075629,7.861627
"hujuanao",29.429828,103.927878
"dinndi bala",14.8333333,-15.8166667
"shiwah",30.8638889,31.2644444
"espelunden",58.716667,11.533333
"oberhummerich",50.566667,7.5
"palle talawinna udagammedda",7.3333333,80.6333333
"xiaoxintan",31.603831,118.407725
"caserio la resinera",36.936935,-3.862104
"rusfors",64.716667,18.216667
"qal`eh-ye wayrana-i merza abdur rahman",32.504994,62.262369
"huaycahuaycho",-14.15,-74.0166667
"ningtap-chicha",25.3,97.7166667
"shekar jangal",26.200217,61.432425
"tep'i",42.6572222,44.3191667
"na tiau",22.433333,105.75
"malaka pindah",2.36,102.23
"estancia moreno",-26.366667,-56.85
"higashi-tamano",37.766667,140.733333
"saint-maurice-des-champs",46.628931,4.619879
"dordt",51.800653,4.698199
"tabucolan",17.4914,120.4266
"shemyuka",37.094167,40.584167
"bedell",42.195,-74.5505556
"kalkgraben",47.75,11.85
"platinovka",45.046667,131.991111
"hasan al laji",33.45,43.9833333
"somoe",-11.073383,14.850695
"nunumache",-5.2166667,-79.4833333
"celenusagi",37.676218,35.773504
"naung din daeng",13.801538,99.991908
"fahlhorst",52.3,13.166667
"lujia muqiao",30.442787,120.880938
"babianwala",30.456944,73.368056
"mazari` al haylah",30.078056,40.267222
"vobche",51.416667,28.683333
"chernyi",51.721667,77.532222
"onitolotolo",8.233333,4.116667
"pringkoekoe",-8.178611,111.040278
"houay lok",19.7,102.45
"yasugi",35.433333,133.25
"bombili",-0.05,20.0
"lukanichi",52.62667,33.012687
"belaya vtoraya",55.7,29.5666667
"damban",11.6793,10.7074
"wan namtong",21.5666667,98.9833333
"dudaki",54.3,29.55
"middelbult",-20.5333333,17.4166667
"l'etacq",49.236111,-2.233889
"srodborze",52.823511,20.367857
"kara-zhar",53.083333,63.6
"durian 4",3.64699,98.85342
"khair maidan",34.607566,72.990244
"kirch mulsow",53.966667,11.7
"naboje",43.030556,20.181667
"wan hsen-ng",21.3666667,100.3666667
"dekhi-dil'mukhammed",33.543438,68.132568
"shanghainongchangchuandongfenchang",33.004167,120.7125
"lysdonck",51.133333,4.016667
"likonda",-17.633333,21.9
"staraya sviritsa",60.483333,32.916667
"whakaki",-39.033333,177.6
"adapa",-4.8666667,145.55
"fellinghausen",50.95,7.966667
"burgich",1.9666667,35.0833333
"mbende",0.1975,14.5069444
"al baqer",18.7,33.6333333
"preajba de cimp",44.016667,24.566667
"claggan",54.6725,-8.3866667
"r'haiyet as sawda'",36.8266667,41.2966667
"marabout aicha",36.9166667,7.2833333
"dobrolyubovka",47.206111,134.324167
"jiaochangping",25.614722,113.220278
"mugangyandzhali",39.713614,48.955679
"kemajuan tanah kampung tenang",2.444,103.0416
"bhejaburn",16.443306,101.147528
"wekaweka",-35.566667,173.55
"simander",52.933333,11.316667
"wielki siolo",52.6333333,24.3166667
"`izbat al alfi",31.3472222,31.6069444
"shanweitou",19.961373,110.583539
"weiswampach",50.1372222,6.075
"manikunay",56.1908333,24.3122222
"medragovac",42.847778,21.397778
"nanmashih",29.103902,120.220168
"barnes corners",43.8169444,-75.8180556
"bapa",6.454468,-5.836853
"moshupa",-24.8,25.3833333
"astaakh",66.333333,136.633333
"khaud",23.5677778,58.1233333
"el djaadria",35.3369444,0.4272222
"labuhankelambu",1.233333,118.733333
"kosambidalem satu",-6.089444,106.4025
"wanudjojo",-7.833056,110.481389
"douar el rhezounia",33.141136,-8.414711
"sovic",40.9,21.65
"ma`zabah",13.6333333,44.6625
"elmleiten",47.416667,15.633333
"ban pak kap",18.333333,103.916667
"saiyid bulhu",32.840954,72.951359
"dawuzhou",29.423464,115.797063
"jumma khan bajwani",28.43724,68.923739
"sesaba",31.507598,62.700348
"ait sebbait",32.267752,-3.379183
"bunima",-5.8333333,142.8666667
"nizhniy kozhlayal",56.9325,48.921111
"porto cachorro",38.55,-28.45
"kampong dekeh",5.516667,100.55
"metsala",60.220556,24.939722
"co nom",22.989744,105.415899
"hoogendriesch",51.05,3.866667
"tajamar",5.65,-73.066667
"dadap dua",-6.094722,106.699722
"xiangshuzhuang",33.083333,115.316667
"novo-barakovo",53.726325,39.705029
"kindstrup",55.41436,9.956922
"cuocaogoumen",40.661085,123.64019
"terben khuduk",48.4,47.183333
"inwagyi",20.0,95.3666667
"la silva",42.602401,-6.26609
"gornja bebrina",45.1119444,18.11
"sarbbanandia",23.4666667,89.7166667
"diviso",1.397241,-78.232586
"caransebesul nou",45.4,22.216667
"xuan tao xa",21.066667,105.8
"brattforshyttan",59.616667,14.066667
"severskiy donets",48.2449,40.2823
"delta del tigre",-34.7633333,-56.3852778
"chiklanovo",57.1684,48.59
"saevelandsvik",59.266667,5.2
"selenur",56.926196,49.767668
"rancho churo mayu",-20.1166667,-65.3166667
"gloucester",-32.007702,151.963303
"aipoln",49.133333,12.45
"butica",1.05,9.6833333
"shinkafa",7.25,10.033333
"lebakbulus",-6.2938,106.7816
"talib mari",26.717943,68.238698
"shaqq hamad",11.5833333,26.9333333
"allandale",-33.166667,149.7
"banjar tengipis",-8.3563,115.253
"verbov",49.232194,25.131927
"konjice",46.3366667,15.4258333
"aldeia dzenda",-15.4808333,32.1875
"kumaysh",33.4566667,43.3052778
"cacaiglesia",-14.035,-71.4891667
"cambresco",46.1283333,13.6527778
"bleran",42.0841667,19.5447222
"digun",23.8333333,90.3666667
"waigakum 1",-3.6666667,143.0833333
"dar halfawi",36.734463,9.72787
"sidodadi tengah",-8.1866,112.8377
"guangaje",-0.8666667,-78.8333333
"bisbicha",-14.1666667,-74.1
"jeq jeq-e bala",37.8692,48.25
"iskowun",33.95612,63.658089
"kemajuan tanah kampung awat",2.667,102.6419
"xajxac",14.833333,-91.166667
"laxu",35.978881,102.411004
"le burel",49.932722,1.36361
"hurmudar",27.3168,56.3143
"lonboasa",-5.9666667,145.2833333
"turiz",42.8,-8.116667
"shagey",31.028619,66.205096
"shivers mill",31.6766667,-84.74
"mpakaka",-14.7166667,35.85
"la pierriere",47.845337,1.786871
"phu cang",12.7,109.216667
"boulouli ware",14.6833333,-9.6833333
"lluan",-8.2,-78.45
"cocana",37.987884,41.357714
"dehreza",34.938928,67.973939
"tell kotchek",36.8097222,42.0627778
"khosnad",22.4833333,90.8833333
"intimok",43.988056,67.865
"dow dangeh",30.166667,51.6
"ahokan",7.4,1.7833333
"kozpinar",39.433333,28.033333
"nanliang houyaoxian",36.733112,107.686858
"mumcu",39.210852,28.539504
"xom son ta",21.633333,105.633333
"sologovskaya",57.416667,37.516667
"janschwalde",51.866667,14.5
"koslar",50.066667,11.65
"vaerstad",59.25,9.366667
"mangani",-0.016667,100.25
"jhok muhammad darewali",30.552946,70.662948
"tluwuk",-6.6786,111.1158
"cuitian",27.875833,120.646111
"valailles",49.122502,0.600192
"kushavera",58.866667,34.683333
"general lazarow",43.95,27.2833333
"shekar `ali",34.0133,47.57
"tloul ed dahaya",34.7166667,37.1166667
"nees",56.399298,8.223296
"llonin",43.334448,-4.648664
"holi",31.691665,118.577221
"kampung padang manggis",3.4915,103.384
"pyshma",56.952263,63.251291
"montreuil-sous-bois",48.864151,2.443218
"tukustayev",48.2,47.266667
"de-gamo",35.316667,136.016667
"gromadzin",54.188959,18.336675
"buzinovskaya",45.599794,39.802485
"bassoues d'armagnac",43.579227,0.246351
"houhongliang",39.290415,111.94567
"kuchembetova",51.683333,50.333333
"sileti",52.166389,72.737222
"goth qatil kirio",25.419042,68.334157
"fragnainta el outa",34.390819,-5.296492
"han casla",46.381478,30.047955
"cociuba mare",46.733333,22.0
"hwangkucha",31.179722,117.550556
"ipokasambi",-4.016667,20.85
"polepy",50.505463,14.26523
"shanah kheyl",32.883732,67.500417
"fayazullapur",25.0833333,88.5
"fokonyani",-5.1166667,39.8
"tegapan",3.4297,98.1806
"sutte",57.8097222,27.2319444
"yuejin jitihu",43.3939,130.049525
"sayang",-6.5326,110.9528
"granatula",38.796897,-3.743371
"kumshatskaya",47.639722,42.051667
"andiroga",-13.5166667,47.9666667
"wamawkhi",17.7,97.3
"basumbu",-2.55,26.783333
"muong houn xieng houng",21.608889,102.301667
"sangeorgiul-de-meses",47.033333,23.0
"xinjiabian",30.805246,119.571685
"verkhne-telengui",51.633333,116.05
"terauchi",34.783333,135.533333
"beltiaski",15.3333333,-15.6333333
"bambavda",16.866667,74.033333
"pataukunk",41.7916667,-74.3063889
"bayt `ayyush",35.8,35.95
"ny farevejle",55.79788,11.432031
"stabno",55.683206,31.81565
"hanglang",30.959441,118.492562
"douglas park",-34.184959,150.714493
"grundtraskliden",65.516667,18.733333
"hekelermoor",53.133333,8.516667
"nienie",-3.133333,22.316667
"el co",18.6333333,-71.2666667
"banjar serokadan",-8.4762,115.3359
"el krimda",35.27446,-6.073925
"kayaushka",52.5,80.483333
"ban bang khayo",14.15,101.033333
"deglava",56.65,27.8666667
"bailinzi",31.364822,113.146793
"phumi prey chruk",13.5333333,103.55
"hanswalde",53.710695,19.034367
"zvule",49.1,15.233333
"walakumbura",7.3333333,80.9166667
"jelatong",-5.286629,104.293739
"kerkaszabadhegy",46.81,16.1872222
"olesovo",56.783823,41.999277
"hook",50.8,-2.666667
"isikite",6.022608,6.539258
"sojuolu",6.848761,3.151012
"brane",59.433333,13.366667
"narong",21.663405,109.921393
"targul fierbinti",44.7,26.35
"kojend",40.28,69.6316667
"dahshur",29.75,31.2333333
"nova subocka",45.3719444,16.9208333
"jalluwali",30.093707,70.620344
"enempondok",-8.6628,116.3274
"urudzhis",9.510556,43.060833
"landsort",58.743056,17.865556
"kinjae",39.6366667,125.3519444
"chungapa",32.902191,101.706655
"caixeira",40.139359,-8.695104
"bretel",53.05,9.5
"hacienda admirable",9.434436,-75.003493
"kanati-gulyamdzhan",33.613056,68.364444
"shangtiechangba",33.590727,106.42443
"mangando do povo",-8.003654,17.001954
"poljanici",43.7075,19.3661111
"zanengo",45.216667,9.85
"gumab",34.276197,66.509247
"lomovoye",64.0074,40.659
"poedjon",-7.8435,112.469
"yajicun",25.2525,110.357778
"bohl",49.383056,8.296944
"c. santos",-11.016667,14.633333
"lang loue",16.433333,106.733333
"chorivad",23.883333,73.116667
"hassarji",34.7166667,36.25
"santa lucija",35.862778,14.5075
"norre storfors",65.9,20.25
"nimqowlak",34.18398,67.225933
"mortimers",22.9,-74.8666667
"subbovichi",52.898066,32.232338
"changjipyong",34.493056,127.793333
"yuanshangchuang",24.75,121.6666667
"ap thanh my",9.983333,106.516667
"chicoleca",-15.6666667,34.4166667
"panghulan",13.942427,120.939593
"sukino",54.45,31.0666667
"degan doga",34.666124,71.901449
"pouit soump",15.1666667,-16.25
"akkermanskiy",46.233333,30.216667
"leanyfalumalom",47.95,20.666667
"dragai",33.125062,70.684374
"myza vetsvale",57.4833333,25.65
"zheludevka",54.368841,37.16543
"kampong huaibu",19.368639,98.437917
"kampong sungai batu larangan",5.65,100.433333
"queara",-14.6833333,-69.0666667
"springbrook",-29.85,152.383333
"oberende",53.166667,8.883333
"dechra bouar",36.4166667,3.35
"velez benandalla",36.832445,-3.515389
"cikareu",-7.1893,108.4463
"zinenu",55.0333333,24.0833333
"kalebogaz",40.522022,41.895422
"san juan de alicante",38.39918,-0.433407
"polilofos",37.0833333,21.9166667
"chamulapa",15.05,-92.4
"ny-holte",55.816667,12.466667
"samamba",-9.3666667,31.7833333
"mtulanjiwa",-10.45,35.8166667
"akzigitovo",51.9724,57.3988
"cemik",38.13613,39.449294
"nawngton",21.3166667,99.5833333
"gulakabili",-19.7,27.0666667
"ottenskiy",58.733333,31.716667
"dos ranchos",18.5666667,-71.55
"al khudayri",31.15,31.0
"bontosapiri",-5.5105,119.964
"mohal joga",31.35,72.716667
"pars-les-chavanges",48.507943,4.49941
"lazy acres estates",33.9405556,-80.2763889
"Ðonca",42.697222,19.8
"zhuziwei",23.379722,115.784444
"suomela",60.466667,24.066667
"agbondji",7.0666667,1.6166667
"mawdudi",34.934842,62.386598
"xiejiali",27.788026,114.510088
"gra town",6.2572222,-8.9341667
"zunova",44.175,18.5583333
"`eg",9.0,45.3666667
"armellari",-7.0458333,-76.4294444
"matsumae",41.423889,140.105
"goth pahar kaloi baloch",25.085624,69.174933
"baska masun",37.261,49.0366
"dagah waraba",10.0,43.8333333
"bosela",1.3794444,17.6
"kueinan",35.650216,100.600063
"aaqrabiye",34.55,36.4833333
"sazambi",-10.983333,20.833333
"ivnalik",68.45,-53.5
"drozdovo",54.5833333,30.15
"burlate",42.970556,20.597778
"ussimani",-11.8366667,35.9930556
"lanqiying",40.38,118.015
"phumi lvea (1)",11.1666667,105.4
"bayglychevo",55.1002,47.9738
"cachahuiri",-13.8166667,-72.25
"quiros",-28.787022,-65.112363
"locunel",47.756944,-3.327222
"idaux-mendy",43.180973,-0.915814
"zardulu",39.65,70.95
"kampung babaru",6.649334,100.253864
"changson 1tong",36.008333,126.696944
"ardanion",39.6311111,21.7875
"graoina",43.0875,17.5730556
"yoktun",37.372222,128.716
"behavoa sud",-25.15,44.4
"vanilovo",55.495673,38.650636
"caopo",33.13569,104.95936
"thon phu hoa",12.483333,109.1
"tiganimine",35.00957,-3.98763
"chisulo",-13.2333333,32.2
"pustoramenka",57.319882,36.177669
"fansange",19.398103,109.704371
"tympal",58.176186,51.913615
"kure beissachlin",47.65,102.5666667
"nabazane",12.1997222,-1.3630556
"san juan de jesus",13.8928,122.0847
"baglio manzo",37.85,12.516667
"hsiangpei",24.683333,108.65
"muntaiwani",-1.083333,115.933333
"gazgazareh pain",35.1673,47.1936
"mocorishte",40.7036111,20.9294444
"pop gergievtsu",42.8833333,25.5666667
"qaranjeh",38.8555,44.5286
"tang mageng",4.698056,119.395
"bekhinta",17.9666667,97.3
"shimo-uchida",33.033333,130.75
"hachondong",38.2322222,125.8622222
"valdenuno-fernandez",40.759814,-3.376801
"mochiang",39.133333,113.616667
"sang-e low",34.713315,62.009817
"trials",16.6833333,-62.2
"nokami",44.016667,143.483333
"grethel po",37.4827778,-82.6572222
"sigracik",39.079643,31.05781
"karahisarisahip",38.756667,30.543333
"akpokro",7.857191,-5.057728
"ganbum",7.916667,11.25
"sembauer",48.416667,13.333333
"sanga pequena",-11.133333,15.4
"ban sara khuan",13.033333,99.916667
"xiamulongpan",34.716332,107.910409
"hapugolla",6.95,80.9
"tangadouga",15.0166667,-10.4666667
"bosraq",34.446667,68.82
"novato",38.1075,-122.5686111
"zagorna",47.796667,28.552778
"boca de niquia",6.870913,-75.839921
"meananeary",54.7019444,-8.6091667
"kabacoto",13.7833333,-15.65
"punarwala",30.841313,70.86697
"mashan zhen",30.079374,120.658032
"solonhoto",13.2,-10.6833333
"batoe-hirang",-3.216667,112.4
"ban thung sawang",17.748806,102.689445
"essokoreti",5.147182,-3.209208
"barriac",44.910499,2.689522
"kawur illi",36.6833333,37.75
"cihanbeyulya",39.799166,42.240085
"acueton",1.8333333,10.7333333
"kampong maulu",5.333333,115.383333
"musayelian",40.9927778,43.9388889
"bambadalawalandama",11.1166667,-10.85
"munkula",-3.266667,26.116667
"eberbach-pres-seltz",48.926205,8.065337
"disaplit",17.0,122.116667
"jado laghari",25.451794,68.791285
"beni iklef",36.3666667,4.2333333
"koetawinangoen",-7.719444,109.737778
"kabah rabb",36.5388889,38.45
"luxembourg",49.6116667,6.13
"ban nong sang kham",17.286417,102.861722
"jakaiciai",55.0166667,22.8666667
"hafnarnes",64.866667,-13.766667
"bongpulugu",10.4333333,0.1
"saaluse asundus",57.7477778,27.1033333
"sitio jose kmeick",-25.953056,-49.525833
"jishizhai",32.08514,106.135159
"mondwani",-10.8333333,39.6666667
"mauca",-10.1477778,-76.2458333
"manjiyeh",30.705556,49.208611
"jal khuh",32.448611,74.748611
"fijnaart",51.638511,4.471204
"doublet",19.0333333,-72.4666667
"shorvin kets",46.986,45.4972
"kagio",-0.6166667,37.25
"lhok nibong",5.072,97.5227
"sorkhraneh",33.147469,67.271128
"kampung kuda",5.8827,116.0831
"utumuk",54.3323,126.069
"lion houng",11.183333,108.383333
"santa maria di ramici",42.55,12.3
"orientales",29.016667,-103.833333
"lal'mai",35.504748,68.930108
"toleke",31.951111,74.2025
"annandale estates",39.2177778,-86.2661111
"chingwande",7.5456,8.4951
"hesare haj shams ali",34.776704,48.53968
"kohlsaat",37.9416667,-81.7047222
"koraj",44.7083333,18.8802778
"mitzpe-shalom",31.583333,35.4
"touves",45.516667,2.5
"jecia-mare",45.849167,20.889167
"bacqui",16.7557,120.3847
"yithan",-34.333333,146.85
"chullumpire",-19.516667,-68.966667
"neradnovci",46.8425,16.2027778
"yelnitsa",54.45,28.45
"karewetkaleka",-9.5683,119.056
"betbaria",23.5333333,89.8166667
"abaghennen",12.383333,37.233333
"votice",49.639484,14.640219
"selembu",-7.350556,110.335556
"jinjizui",23.393293,112.360544
"soulon",37.45,22.1166667
"tyogbenda",7.016667,8.8
"dalsang",60.65,16.666667
"shatikhina",53.03575,34.011224
"olgina",59.3952778,28.1252778
"soppe-le-bas",47.716002,7.086147
"mishaab",28.101253,48.611435
"shireh cheqa",34.3622,46.1001
"haji umar grano",24.991704,69.024018
"daw ta-hso",19.6666667,97.1166667
"camarena",40.15,-1.033333
"dawanda sandrana",30.616667,72.75
"bardano",42.75,12.05
"douelli",6.602538,-8.47561
"golviran",39.453456,33.87447
"imecik",36.845833,30.223611
"sinanchzhen",39.145556,116.642778
"sar-e burughsanak",34.395607,66.978226
"golyamanu",42.9666667,25.8333333
"ammehghin",36.6252,49.1686
"casas de pinilla",37.504722,-1.515747
"huakha",-19.0266667,-65.0525
"chulani",30.55,70.75
"vracevi",42.2386111,21.8786111
"weng-nawng",21.55,97.9
"aldeia da ponte",40.413448,-6.869104
"ban khok nian ok",6.776222,100.416722
"batubelin",3.4394,98.6715
"tir muhammad",34.098889,68.334444
"las menores",-15.7683333,-73.9219444
"linggasari",-7.375278,108.923056
"caserio la martiniega",39.8,-2.866667
"tuong cat",18.733333,105.333333
"panderu",7.9597222,-11.1363889
"magalia",39.8122222,-121.5772222
"watan sopeng",-4.3522,119.8841
"degersheim",47.372922,9.196825
"pangchoniri",38.0625,127.873333
"ayios yeoryios lefkas",35.1,32.8833333
"huttel",48.955965,13.606653
"horni strampouch",49.861796,15.36159
"moutong dusun 3",0.5581,123.1241
"chouchiapang",30.6925,121.193889
"joubb rzeiq",35.2666667,37.2166667
"san fernando hacienda",-13.5,-76.15
"fruges",45.234518,4.312675
"kampung pela",5.0117,103.1327
"sarqal",35.0884,47.8509
"bomova",41.505,20.4802778
"ban saen sawai",12.716667,102.133333
"koskovo",54.4666667,28.1833333
"gara seitandzik",43.4333333,26.9166667
"wilhemina",-26.883333,30.216667
"singeru",45.133333,26.35
"palyawala",29.267822,70.428459
"damunu",-11.3666667,154.0333333
"phumi ta paong",12.7833333,105.0166667
"maidanshar",34.448333,68.794722
"mile xian",24.404167,103.442778
"poinceau",18.45,-73.5166667
"the rower",52.4555556,-6.9569444
"michiplaya",-15.1833333,-68.1833333
"boucanyona",19.05,-72.0833333
"bakouele",6.602909,-8.399643
"ieud",47.683333,24.233333
"alatopetra",40.0666667,21.2166667
"nora y cieneguilla",24.016667,-103.083333
"bluff spring",37.005,-87.3147222
"kandixia",32.9175,106.371496
"cijember hilir",-7.0516,106.9078
"wedani",-7.2119,112.539
"stora silpinge",56.283333,15.166667
"aslanlu",37.8452,48.3426
"mandoso",-19.95,45.0166667
"davsta",45.936944,47.513889
"muglhof",49.65,12.233333
"sindakhir",38.622,46.1828
"phumi pratheat",11.8333333,105.4666667
"kyaukhlebein",21.6166667,95.15
"bumibanten",-8.6729,115.2117
"ban sam pa ka",18.65,99.116667
"cauldon",53.033333,-1.883333
"chakah-ye largah",33.051889,67.746236
"yamboule",10.5333333,0.15
"medibur",-4.4666667,145.4166667
"chaquiucro",-12.1166667,-75.5
"spring prairie",42.6913889,-88.4041667
"litkhekay-polar station",67.1,-173.5
"douar ouled daoud",35.3333333,-0.3333333
"kilometro cincuenta y tres",8.6288889,-71.6916667
"yalingufa",-0.75,23.083333
"kushtan",36.1204,48.3962
"zoutan sanzu",31.206495,121.045104
"shigezi",24.432222,117.140278
"mizurskiy",42.853763,44.063929
"uahala",-14.5772222,38.8994444
"ahaluna",34.3125,-83.8627778
"latoshinka",48.846389,44.636389
"plinge",55.2833333,23.1666667
"bandar betsy 2",3.2019,99.2685
"huactahuas",-13.2166667,-75.1166667
"safvenfors",59.883333,14.533333
"montuiyoc",-21.3166667,-66.1833333
"les tournieres",44.469889,6.105351
"komakino",30.716667,131.016667
"wahas",-7.2848,112.4275
"cuicuinaco",20.916667,-97.85
"hoppers mill",40.7825,-75.8638889
"ouwegem",50.916667,3.583333
"monroy",5.833056,-73.678889
"carroll dale",39.4169444,-76.9186111
"otyaty",51.7666667,23.8
"chefe muipo",-17.1586111,38.0619444
"sambangaye",13.5833333,-14.3333333
"tsayvopu",43.583333,87.966667
"pulykin",50.666667,50.866667
"kladovitsa",59.0511,46.0547
"goth firoz khan wagha",28.349022,68.47384
"backenhain",50.833125,14.920677
"kili gulab khan",31.360903,68.974365
"cisareat",-6.7366,106.1732
"podzaga",45.8025,14.5966667
"haltarsbo",60.183333,16.35
"lowai",-6.4833333,145.2166667
"haft nafar",35.0588889,44.4536111
"battulapallipadu",14.483333,79.8
"paschim marichpatti",23.5866667,90.2094444
"sangduo",31.201,95.801
"yuki kengundu",-3.95,19.566667
"yelyaty",61.666667,50.8
"kampong trusan",1.466667,111.416667
"nadongolomo",4.1933333,33.5333333
"lingatwana",2.0,18.6
"nepersdorf",53.833333,11.616667
"kokkorevo",60.064609,31.06386
"kafr singirg",30.5072222,30.9647222
"kolonia debszczyzna",51.033333,22.433333
"muhammad saleh lashari",26.436887,68.263069
"dossainville",48.255275,2.27111
"gulz",54.089181,16.128597
"zagabo",12.840251,4.297369
"kabbaro",13.7166667,33.3333333
"indere",37.807886,38.249499
"dervisaga",45.33,17.7280556
"mazra`eh-ye allahyar",35.1629,50.9434
"mohammadabad-e yazdanabad",30.861111,56.349167
"kokoleh 2",1.6134,125.0264
"lekhmis",31.278215,-7.77511
"merrifield",50.833333,-4.333333
"gradovoy",59.5,49.05
"hacienda colimbuela",0.35,-78.25
"zweifelsheim",49.533333,10.833333
"madarassytanya",47.927026,22.774176
"bloktengki",-6.3674,106.7778
"ilching",48.066667,11.866667
"l'unite",-20.2327778,57.6672222
"halesz",46.684426,19.825824
"lauzach",47.61409,-2.543649
"harmanseki",40.584905,31.17258
"pindi miana",32.140809,72.70679
"sidi ben aissa",33.888428,-4.63648
"ban pak khlong samnat",12.745,101.985389
"flateland",59.266667,7.483333
"kilrau",-4.016667,131.433333
"benjaminera",9.8433333,-65.8177778
"bag'yar",33.800417,69.748284
"andranovoritelo",-19.4,44.85
"djamburabeuengabeueng",4.2473,96.5741
"soengaitiram",-0.783333,117.2
"agua blanca del sur",15.25,-87.8833333
"achzhirigyyn khure",48.8166667,100.9666667
"fangchengchen",45.833333,128.8
"basse ransy",50.616667,5.633333
"minchuantsun",23.2227778,120.6930556
"khuddozai",32.885626,71.436023
"calamonaci",37.516667,13.283333
"gerem cempaka",-5.16289,105.563007
"alekulla",57.35,12.7
"makam diraja kampung mahrum",3.5304,103.4516
"ban wang i nok",16.633333,100.233333
"dreenagh",52.4169444,-9.9169444
"funakatamachi",35.016667,139.85
"fossacesia",42.25,14.483333
"sanghadae",40.9441667,129.0036111
"bondiekourou",13.5333333,-11.0333333
"lalampu",-2.7865,122.0809
"badinan",22.896667,88.243333
"dakhani-shorasu",34.865834,68.353056
"trashkovo",56.242694,30.894666
"caing haye",20.85,104.883333
"south creek",35.3355556,-76.6947222
"ban ku bae pu rong",6.464194,101.259639
"kayardzhi",43.4333333,26.5666667
"beliteno",52.0326,34.917
"hwasongbae",36.645,126.5194
"amphoe wiphawadi",9.238945,98.978611
"sungai kolak",0.85,104.6
"ronjin beau",13.020335,5.132065
"florai",-23.283333,-52.316667
"le menil-de-briouze",48.676527,-0.398285
"pyatovka",54.261603,35.904631
"jambu pulau",3.5767,98.9486
"south masaryktown",28.4280556,-82.4605556
"hepingzhen",27.908889,109.384722
"mbos",16.7166667,-3.85
"mala luka",44.0491667,17.3355556
"gouyuanzi",32.883333,116.516667
"qaryat bahbahani",32.8033333,44.2375
"zaouia mohammed ben merzoug",31.764577,-9.014873
"bayghanin",48.694722,55.874167
"otisheim",48.966667,8.8
"dad muhammad",28.33599,68.126938
"beasley gap",34.3488889,-84.5972222
"crecan",46.3986111,16.3491667
"handuru paliyagama",7.9333333,79.9833333
"`eynak",37.276389,49.549167
"tlogowarno",-7.706667,109.772778
"kermodienebodiane",15.0666667,-16.05
"capillayoj",-15.4,-74.2333333
"ozierodowicze",54.6166667,27.2333333
"songjoktonghadan",39.8666667,124.9
"kalateh-ye gazdez",32.3658,59.976
"dalayke",47.641389,124.679444
"budoi",47.2,22.366667
"conegaran",-7.884167,110.130833
"kargheh",35.095438,71.416988
"porto do massaca",-12.433333,-61.033333
"nayucun",21.768554,112.381287
"talampetan",12.12217,119.872512
"musambira",-2.045,29.8419444
"sanguena",10.2666667,-3.6166667
"tha chin",12.583333,102.483333
"iobageni",46.566667,24.8
"serkire zarma",13.4394444,2.1763889
"pegado de baixo",-9.454735,16.169666
"tyniewice male",52.853924,23.456103
"burgaltayskiye",50.6136,105.0617
"arbolitas",7.85,-65.2333333
"bijagualito",9.733668,-84.544223
"vucja luka",43.9163889,18.5175
"pachas",-9.6166667,-76.7833333
"parijein",11.559722,-72.239167
"bazah qurnah",36.885,43.9594444
"doctor-di-goth",25.450172,68.635466
"kulthun",24.0166667,90.5333333
"glukhoyedovo",53.05,54.966667
"kyurtkend",39.567644,44.967365
"azaghar",30.248204,-7.942347
"banduk",34.121735,70.563988
"maraempay",16.3356,119.9714
"bolshaya ratchina",60.906389,46.091111
"ternovatyy kut",48.055833,33.537222
"qale kang",31.1102,61.8827
"yankulovo",48.166667,28.383333
"mbatiri",-16.6,179.0333333
"stulsko",49.539958,24.076814
"lolotoeara",-8.283333,128.216667
"liaochia",22.75,120.6333333
"batasmolla",24.4333333,88.55
"paewon",36.767778,127.836111
"dagori",12.9697222,15.6905556
"ban huai sisiat",17.142028,101.736445
"phumi muk phoh",11.3833333,104.3666667
"fianello",42.366667,12.55
"ban ta lo lue song",6.347722,101.298111
"lagich",40.853056,48.393056
"gokahmetli",37.399086,36.28641
"dongbianyuan",23.23239,114.124347
"curahancar wetan",-8.2164,113.6075
"osterskogen",62.433333,21.55
"andingilingy atsimo",-14.7166667,49.0
"vestenbergsgreuth",49.683333,10.633333
"kampung tangga batu",2.5291,102.8031
"rakhmanov perevoz",56.1442,40.489
"capayawan",15.2753,120.0122
"ipaguasu",-20.0666667,-63.8
"el-rahib",30.5230556,31.0311111
"yuhao",30.934908,120.777857
"tetarkhan-kent",41.582829,48.093096
"gumal kalan",31.909467,70.819406
"maniatadhes",39.7213889,19.7141667
"saint-genies",45.0,1.25
"jalloawala",31.05,73.05
"nggaliira",-19.15,177.9833333
"tall wardan",36.7163889,42.3536111
"moruzzo",46.122222,13.126389
"jiacao yidui",18.912728,110.262865
"chah sheykh",27.2943,53.2988
"cangkringrembang",-6.8649,110.7694
"juana de arco",-3.3333333,-79.85
"shikhbabaly",39.958433,46.93547
"santang",33.122222,118.055556
"ban xangxok",17.7,105.033333
"ban nase",17.516667,104.883333
"ndameka",4.6333333,12.15
"pishishapa",13.9605556,-89.1747222
"frantsevskiy",55.466667,113.4
"tanaungwun",21.7166667,94.8833333
"quibor",9.9255556,-69.6202778
"hitzhusen",53.933333,9.85
"lowhill",40.01,-79.9511111
"acombangue",-11.3338889,39.8452778
"gjeqar",40.6733333,19.79
"pereluchi",58.215296,34.495253
"ambag",30.4575,77.939167
"trofimovskiy",46.365833,38.1775
"ika malam",48.022745,45.670375
"qal`eh-ye gandoman",31.865085,51.154867
"taraska",51.320892,19.927582
"yurasov khutor",52.1405,34.5246
"lipahan",13.837222,121.408889
"kliprivier",-28.522875,30.286434
"shangssu",22.168409,107.943087
"akib",35.694583,70.085634
"potekhino",54.533333,127.766667
"'ain ben beida",36.6166667,7.7
"philipstoun",55.966667,-3.5
"gholamuddinkhan",31.501571,65.324565
"kampung hangus",5.594973,100.853953
"singajaedong",40.8691667,128.4036111
"dire boch'ore",9.733333,38.766667
"cayirbasi",38.342325,42.222075
"concord estates",33.8822222,-80.3194444
"sojuni",33.497222,74.019444
"giesen",52.2,9.9
"xom ong nhon",9.259722,105.089444
"yavuzkemal",40.7,38.333333
"khaira tola",26.9,84.133333
"moldavsko",49.033333,23.116667
"podmede",43.4633333,18.6988889
"goth dodo khan",28.0137,67.7052
"qawcenay",33.634069,65.604692
"san pedro tacaro",19.85,-101.616667
"yasin khel",33.637943,68.641388
"pulham saint mary magdalene",52.433333,1.25
"tsappara",32.374167,69.803889
"bobemain",8.65,16.6166667
"panyuki",57.062307,33.292104
"molla `abbasi",27.6119,57.8084
"valdesandinas",42.349329,-5.866661
"serra do doutor",-6.233333,-36.183333
"coverdale crossroads",38.7102778,-75.5313889
"tumanggul kidul",-7.420833,109.181944
"mishonkova",52.65,104.39
"metihakwela",6.6333333,80.6
"cabo matimpa",-13.6411111,40.3263889
"mojstir-zapadni",42.913333,20.412222
"belichye",60.931355,29.904805
"erickson corner",41.6636111,-73.4225
"gourel saedi mali",14.1333333,-12.6833333
"penca",-34.753451,-65.032753
"moutong dusun 2",0.5521,123.1265
"arronnes",46.059882,3.569057
"regale",47.7,22.133333
"wakaf",-7.7147,114.0549
"fura girke",12.573841,5.382334
"matako",-1.4196,120.9135
"konigstadt uber gransee",53.05,13.083333
"ban samnak krabao",12.8525,101.731667
"ndoua",3.05,10.2333333
"rancho el penolito",26.0,-104.233333
"pallekanuketiya",6.1166667,80.9333333
"efulayong",1.4333333,10.6166667
"lesozavodskiy",58.483333,49.733333
"la brillante",8.156111,-73.268056
"sitio antonio de oliveira",-23.870752,-50.567629
"oliveira dos brejinhos",-12.316667,-42.9
"culkin",32.3680556,-90.8180556
"baishendun",29.92624,115.782142
"whakatahuri",-41.016667,174.033333
"geus-d'oloron",43.25,-0.7
"sam nkutu",-12.8,30.35
"seyyedli",38.395556,47.211111
"horodnianka",53.655504,23.112571
"al qadhima",22.349146,39.155407
"takerbount",30.048489,-8.755628
"kakolakkon",40.0369444,20.4702778
"pasirpogor 1",-6.983611,107.403333
"aylmerton",-34.416667,150.516667
"etvay-nur",56.0902,46.1039
"margaride",-6.283333,-36.833333
"purwa gokal",26.6115,79.8375
"deh-e kheder",30.1649,55.5686
"lehao",19.947307,109.836671
"vosmoy uchastok sovkhoza imeni karla marksa",41.997402,48.333246
"sejallieres",44.921384,3.720023
"borongleko",-5.3404,119.3906
"arakh",-1.533333,132.5
"koshk",34.871096,62.547621
"niandwe-makita-kilonda",-4.05,26.0
"gaopan",28.571889,119.752359
"desmond",-33.633333,120.183333
"hayashida",34.9,134.583333
"ciberenuk",-7.3051,106.6072
"voskochorion",40.3763889,22.0033333
"murueta",43.126196,-2.929893
"tungyangtsun",36.196944,111.498611
"peralto",-1.3166667,-79.8166667
"modubeng",-24.316667,30.183333
"playa de vacas",19.1,-96.15
"stono",32.73,-79.9825
"jouada",31.768088,-9.184336
"sarbagysh",42.8166667,75.6
"hung shui",22.2833333,114.0
"burovo",41.5,25.1333333
"latnivaara",67.25,20.266667
"chongochahari",-12.1905556,44.3186111
"gainesboro",36.3555556,-85.6588889
"morawczyna",49.494867,19.942488
"levkara",40.2833333,21.9666667
"barra do chata",-8.5,-35.933333
"inpadi",17.2166667,96.2833333
"ca julio",11.7833333,-14.9
"burgusun",46.731667,44.718333
"ashur-e kuchek",36.833333,53.933333
"hejib",35.5402,50.1658
"lukavec posavski",45.4105556,16.5244444
"hsienkungchen",34.526832,107.068062
"tungpeihsu",24.997448,112.295921
"daglysa",61.383333,16.866667
"hutishan linchang",35.394722,109.792778
"karkalovo",57.8845,45.3139
"jijiashan",35.929167,114.125
"legobwe",-24.25,29.95
"xiagaoxie",25.413133,115.762361
"krutsy-oreshki",57.200539,42.932887
"gizima-ziema",7.95,-9.6166667
"batanglamapa",-4.8537,119.5918
"dargah darreh",37.103,48.7645
"namewala",30.829947,70.993567
"gniewoszyce",51.594051,14.817961
"vaharauma",61.483333,21.733333
"kabugan",9.7151,123.4149
"nieder-angern",48.116667,12.683333
"manokwa",5.6333333,-0.6
"alifanete",-21.4913889,34.7302778
"dhoriskos",40.8666667,26.1166667
"kelo jebi",9.216667,38.216667
"grishikha",57.25,41.2
"ampombomangarakaraka",-16.0333333,47.0666667
"boneh-ye hajji cheragh",31.10852,49.643032
"ghal'eh lar",38.2173,46.5411
"abu haraz",14.4833333,33.5166667
"nayazbadal",35.944192,67.547933
"dioure",13.7833333,2.7333333
"parassy",47.233523,2.547811
"dowvayer",30.669305,48.795842
"gelawadedena",-10.0333333,151.0666667
"michalcza",52.66838,17.354473
"onen",5.988385,7.148007
"hazel grove",53.383333,-2.116667
"wairiake",4.9058333,-7.7513889
"suhrendorf",54.466667,13.133333
"juebian",34.989589,107.406037
"chuisah",35.765,46.1102778
"ban nagnang",18.066667,104.616667
"bonche",6.05,37.333333
"sanga i",-2.1333333,11.1166667
"luozifen",32.37007,106.103335
"aquadale",35.2272222,-80.2258333
"meytably",41.328716,48.929106
"did murad gabol",27.833333,69.45
"caserio cortijos del rio de casa",38.533333,-2.566667
"moribougon",12.9836111,-8.9780556
"taenaedong",38.95,126.6
"uileac-simleului",47.283333,22.75
"shaybat an nakkariyah",30.5986111,31.4730556
"eutaw springs",33.4066667,-80.3011111
"karan bakhsh kalio",24.540067,68.346903
"canupata",-14.4791667,-69.7272222
"chhota rangamatia",24.45,88.8833333
"shangshili",22.657014,112.863118
"surrel",41.3308333,19.9052778
"antalanga",10.2457,123.0296
"castello di comano",44.3,10.133333
"sodreke",32.355675,74.647532
"morlautern",49.466667,7.766667
"bolshebayanovskaya",53.9032,102.587
"pamyatnyk",46.261625,33.529481
"makebokwa",-2.2,26.3
"gongo-yosenge",-2.8,24.816667
"gulyamak",34.669949,66.179543
"ching hai",23.461319,116.770071
"sachisika",-13.2833333,24.0833333
"mojcza",50.839995,20.682667
"kampung tunjong",6.522358,100.242651
"kafr ash shaykh anas",28.5933333,30.7308333
"yuanyangchiao",29.665,106.558889
"edermanning",48.333333,12.95
"waxham",52.766667,1.616667
"yantou xiang",39.060587,113.329022
"jiuzao jiuzu",32.672988,120.582923
"libiola",45.05,11.05
"ayguatebia",42.571323,2.183661
"saundersfoot",51.708333,-4.701667
"phumi kon satv",10.6,104.2833333
"ivanay",55.492521,54.827836
"linzijie",37.3,116.883333
"baldi",34.909017,62.450451
"shangho",30.7,118.716667
"liubeizhai",40.012778,117.8925
"kujnik",45.1713889,17.7338889
"tanhasso",9.597111,-7.303367
"katund i arasit",41.1725,20.2791667
"vehlitz",52.1,11.883333
"hawsh al ash`ari",33.5166667,36.4166667
"vico val d'elsa",43.533333,11.1
"tiefenlauter",50.333333,10.966667
"rahmanpura naya",31.086659,73.958094
"yapi djemae",5.703445,-4.34593
"kuneti",8.883333,39.566667
"espigadilla arriba",7.8666667,-80.3833333
"wafou",32.316667,116.933333
"porfias",23.116667,-103.25
"kizhart",55.3,92.5
"pampahuaya",-13.5166667,-72.4
"multitud",-2.1,-79.0
"budovitsi",57.975893,27.807974
"curaja",-0.783333,-47.95
"rempas",-8.508,120.6448
"pyonggiri",34.691667,126.765278
"patula",-16.8397222,38.5044444
"les jourdains",47.233809,2.202855
"kolno",52.1333333,27.9
"taman bandar",1.8294,102.955
"malcay",46.870165,2.619951
"lihban",23.7908333,56.8730556
"flat lick",36.8288889,-83.7702778
"kamzende",7.033333,8.833333
"testemelci",41.7341667,22.0972222
"tanguanqian",28.154474,114.923446
"purowali",32.253066,74.956527
"sarmaoba",34.914444,71.978333
"shome",-4.5333333,38.2166667
"pamrian lor",-7.598889,109.392778
"dhajalokh",2.1666667,45.1666667
"ban dong mak phay",16.4,105.033333
"uongo",-11.143639,14.636436
"njuga",-10.55,35.9166667
"semikey-kasy",55.84127,46.448013
"sesuri",-0.835024,136.016515
"bhaluki sitali",23.6166667,89.0833333
"imbulpe",6.7,80.7333333
"pwot",9.6116667,31.6630556
"el gueraba",32.563396,-8.759012
"baiyanshan",30.803683,111.240999
"rengersricht",49.283333,11.3
"casalgrande",44.583333,10.733333
"negerijemanten",-5.20571,105.488884
"xiangbei",25.889777,116.138061
"klisin",49.500237,14.335583
"sawetno",43.3333333,26.3333333
"wombo",-5.166667,14.2
"zolobki",50.127029,25.97423
"chahar taqari",29.8348,57.4721
"lazarenj",41.0538889,19.8266667
"qal`ah-ye ghulam beg",34.448612,66.988884
"wilhelmshausen",51.4,9.6
"kolarka",49.674014,16.00864
"quixocota",-11.475423,15.129584
"laghonai",31.294724,69.931661
"malyye lisovtsy",49.809059,29.512692
"ban phonsak",18.577778,101.471111
"mirjanovici",43.5563889,18.7527778
"caruao",10.6,-66.35
"rahwali mori",34.592368,73.696621
"shenkengtou",24.713333,117.168056
"baraduc",45.703957,3.693649
"shamatura",-18.15,21.3333333
"wudui",31.193722,118.045179
"sucho di basti",30.196834,70.355484
"dien noi",19.8,105.533333
"ambohitrila",-19.55,47.4833333
"dabodheere",3.8,45.5833333
"kebu",11.556934,5.224165
"betanti",13.6905556,-16.6266667
"belvirdi",38.2597,46.8705
"aviaga",7.366667,8.516667
"yakoshih",49.283333,120.733333
"ofia",7.35,2.65
"oak creek",34.7791667,-111.7625
"beragama",7.3333333,80.5666667
"paratarakaya",6.3333333,80.0333333
"sabegan",-7.006667,112.953611
"sitio justina pinto",-23.650454,-50.134677
"iklichem",32.11464,-6.639875
"fjardingstad",58.483333,15.816667
"orow",2.7333333,44.15
"nizhegorodskaya",54.6129,55.851143
"naejangtan",38.1811111,125.3072222
"lokokmumbul",-8.2242,116.3294
"phumi trapeang srang",10.65,104.8666667
"poran",37.185278,126.216667
"ban sa chan",15.216667,102.35
"zarkhay",32.724548,69.025291
"allezai",30.7325,66.948333
"nilga sumu",46.9666667,108.3
"fushetane",41.5669444,19.9127778
"bilekli",39.1983,39.181709
"ban yang teurr",12.2,108.266667
"roseville",-33.783333,151.183333
"bin fata'il",33.55,11.116667
"passerkovo",52.3832,35.4806
"ban thung mai",6.955389,99.845528
"makowarsko",53.406167,17.812082
"basti pehlwan jhabel",29.200237,70.568062
"holzmarkt",50.933333,7.166667
"kormanen",66.019846,30.648575
"qal`eh hatam",33.93,48.7167
"lubukpakam 3",3.5562,98.874
"asagitirtar",38.233333,30.908611
"ledokwarak",-7.720556,110.334722
"cordillera arriba",8.7333333,-82.6166667
"fazenda capao bonito",-21.366667,-54.4
"punnon",6.288333,120.556389
"hacivelioba",40.048309,27.65
"lieponai",54.45,24.75
"sakharbedio",42.2958333,42.0572222
"bakary bougou",11.65,-9.55
"kibanyi",0.4666667,32.1
"bulo uslei",3.4,43.5
"ban vangket",16.55,105.266667
"tanti",-31.356012,-64.592021
"kusapat",40.176667,46.730833
"xinse",23.888879,112.084525
"tajem",-7.0266,110.6189
"south bijaypur",22.9666667,90.2166667
"lage zon",51.25,3.566667
"sporuchnyy",51.8155,37.0935
"vyyer",52.983333,141.9
"lo de casas",20.466667,-100.35
"douar belkheir",35.6852778,0.0586111
"egging",48.266667,12.933333
"neu wulmstorf",53.466667,9.8
"kampong na sae",6.640167,101.374195
"yicheng",31.294453,118.122672
"al madhalim",32.295,45.6836111
"sangzhaicun",35.118889,113.907222
"kampung melipat",4.9011,115.3995
"chefe g. simone",-24.1927778,35.2336111
"arshalinskiy",52.727778,61.135278
"tominjao",11.2277,124.0432
"nyakisa",-0.8833333,30.2
"arkneti",42.2236111,43.8491667
"tazai",34.471267,69.022568
"syumsi",57.11108,51.614938
"fundo de guamarillo",20.9311111,-77.5283333
"masomba",-0.9068,119.9214
"nadil",40.741389,46.288889
"tienmingssu",32.983333,107.299444
"angapang norte",17.9976,120.5218
"handapandunugama",7.7166667,80.3
"zengdatang",23.875924,115.604193
"manzhurovka",54.166667,50.616667
"seeis",-22.45,17.5833333
"xinglongkou",25.151111,109.916667
"succoths",17.0844444,-89.1261111
"plesea",46.133333,27.85
"kalisapi",-7.658889,109.585833
"maredaelo",-9.48489,119.15761
"olombrada",41.414924,-4.160714
"lianyincha",33.846959,112.342301
"kunlu",35.5599,48.9818
"mylka",50.540556,136.988056
"kurshim",48.572222,83.654167
"kholan",54.1,122.583333
"litleberget",68.464167,17.687222
"pantoloan",-0.708611,119.857778
"rumi gibli",18.4,30.7
"mediavilla",43.15,-5.683333
"efele",-0.3,20.45
"mazullakhkheyl'",35.1482,69.318724
"ban mae kaet noi",18.867881,99.03796
"qeshlaq-e hajji mahmud",35.5354,50.6676
"chieng Ðong",21.116667,104.233333
"mariyskoye tekashevo",55.97,52.422
"yunushani",36.054684,36.218634
"vin ka roi",17.366667,106.216667
"jat bara",30.764421,71.466645
"langien",5.2488,96.0572
"goth chutto khan",24.974391,67.10231
"ban cha thing phra",7.473028,100.439084
"rumah lengo",3.2867,98.7104
"chak 51",28.298879,70.370055
"san rafael pie la cuesta",14.933333,-91.916667
"a sene",16.433333,106.816667
"mangilgol",38.3205556,125.435
"ab namel",17.2861111,34.4019444
"kaddour ben laloui",31.83,-8.88
"taochiaoshan",23.5833333,120.6666667
"dwah naziyano khulah",34.020687,70.836151
"chirvonyy dvor",55.3394444,30.3077778
"cibolodor",-7.7326,108.291
"krajkowo",52.803125,20.203892
"kampong pelaman nyabet",1.2,110.433333
"ust-maiskoe",60.416667,134.533333
"xianxi zhen",26.334722,109.643056
"ban phan chali",16.633333,100.483333
"turkhe",53.066667,111.4
"nizhnyaya vasilyevka",47.559102,38.147266
"vila maranhao",-2.616667,-44.316667
"breaza de jos",45.166667,25.666667
"beday",14.4141,122.9699
"edepsukay",44.983056,39.233056
"gabrielowka",50.016667,18.416667
"deokpung idong",37.54174,127.19885
"angamaki",6.490217,-4.442815
"herzdorf",53.166667,12.633333
"huangsha",27.592222,119.298889
"saint-avit-les-guespieres",48.270691,1.271015
"khalidabad",30.0051,52.7767
"dohia",6.3833333,0.7833333
"balikhane",36.5025,36.494722
"kafr el afandi",31.0613889,30.8491667
"galeh pishin",36.8429,49.7178
"riekkala",62.233333,31.166667
"topura",-10.1666667,150.2666667
"xinchengzi zangzuxiang",34.016626,104.442263
"phuoc tinh",10.4,107.183333
"zasaiciai",55.6166667,23.45
"basti muhammad ali shah",31.393528,70.868306
"kotmallanda",6.95,81.1
"korridor pos 13",-23.5,19.8833333
"ede obom",4.888511,7.926761
"majiatao",41.747936,122.877765
"gutaiya",-3.5666667,142.0
"shangdanyang",26.149998,119.241557
"hintere asten",46.961389,12.908611
"stina",46.883333,23.133333
"ghulam yasin",28.659068,70.326713
"aynmara",38.171699,41.469027
"sandao huayuan linchang",42.234076,127.109354
"tedaung",19.5333333,96.2166667
"bustan al bukhar",35.1333333,35.95
"krusinec",49.2333333,21.6666667
"purna susa",-1.665652,-73.227507
"pushawalla palms",33.8241667,-116.2808333
"tabingon",17.7666667,95.2333333
"afurefure",6.166667,5.116667
"nkode",-3.6544444,14.2652778
"liaoxiamen",25.307778,113.133889
"tuxedo estates",33.9313889,-84.4858333
"gad'yala",34.956764,70.018662
"kordeyan",35.8592,51.6226
"takpammba",9.9691667,0.5652778
"kampong gong keding",5.8,102.466667
"sangzhe",29.283333,108.4
"vaha evo",61.183333,24.966667
"chezan",34.5357,49.1229
"richardson park",39.7319444,-75.5861111
"streszowice",50.730745,17.592683
"ban wiang kue na",19.969972,99.944972
"divino de guanhaes",-18.8,-42.633333
"kuem",-6.5166667,141.0666667
"tegaldawa",-6.0599,106.1746
"sigirkoy",38.429722,31.008333
"bougouro",12.4,-5.5333333
"bar tsagai",34.635725,71.323741
"etimale",6.8833333,81.05
"aghcheh darband",37.4499,47.5043
"tasekyaung",17.2833333,95.0166667
"ban om koi",17.801222,98.359334
"akenstaka",57.0666667,25.05
"muhala",-5.666667,28.716667
"ngelungur",-8.1878,112.239
"phu rieng",11.683333,106.883333
"istoshur",57.930605,51.994469
"het goor",51.466667,5.666667
"dobrocska lehota",48.4833333,19.5833333
"ban khlong pipi",7.766667,99.15
"coteala",48.330833,26.861944
"khillan al-sharaf",16.0833333,43.3666667
"mill a",45.7569444,-121.6491667
"tawalla",35.516667,58.506944
"abgao",10.177778,124.988611
"yaying",19.251707,109.075126
"dimbe korki",14.0666667,-15.6666667
"shewegun",17.15,97.65
"kampong atok",4.0207,101.92
"nohutalani",37.358052,37.680705
"nujilmok",39.1552778,126.8238889
"dawwar at tallah",37.30376,9.763819
"muang beng",20.366667,101.733333
"kyeburn",-45.15,170.25
"pacoyan",-10.6666667,-76.45
"bansera",24.5,76.85
"masilmi",36.2779,127.5091
"fahong",26.533333,104.133333
"golema-rakowiza",42.6166667,23.8
"messilai",-23.6683333,34.8425
"gunlock",37.5475,-82.9261111
"esbitduzu",40.811326,30.920287
"oebanjom",37.4115,128.673
"garm ab sara",37.051389,50.265556
"hawdze bangi",34.089129,64.592251
"aldeia mtovo",-15.6463889,33.2419444
"kaisabu baru",-5.4812,122.6947
"sampsous",39.0888889,20.7433333
"inboktaw",23.0833333,95.4666667
"szczesne",53.740531,20.556922
"kislau",49.216667,8.65
"tundkhuy",35.261185,69.634163
"ngardiana",13.2333333,18.3
"pervoye chermyshevo",56.1919,46.5052
"kampung malalin",6.1366,116.2126
"metlatonoc",17.183333,-98.333333
"ebenda mouere",0.5716667,15.3636111
"bagacayan",10.716667,122.266667
"kabolinan",9.283333,123.6
"joruco",19.966667,-101.166667
"katofio",-11.05,28.033333
"vien thon",20.216667,105.816667
"rancho de tucheachic",27.7,-107.033333
"bol'she-churakevskiy",53.049722,64.324167
"brzozowo leg",53.189428,20.673858
"kholodnyy polyachkov",48.871667,41.1475
"strombacken",63.183333,21.266667
"wa oebo",-3.08635,126.434561
"bendopurwo",-6.554717,111.03107
"yogbogo",12.3222222,-1.3886111
"putakrejo",-7.756667,109.798611
"magilka",11.8,15.4833333
"miroslavye",58.3,31.833333
"adounikro",6.722451,-3.564043
"tingcanan",5.695278,120.802778
"ikarem",29.64,-9.87
"phumi sre ream",11.3833333,105.6
"mehnajpur khas",25.666667,83.116667
"erzsebettag",47.8,21.683333
"phumi sotip",12.0166667,105.0833333
"poamay",-20.3833333,45.4333333
"touzdine",30.610993,-7.87194
"dragumovici",43.771667,19.500278
"sangyuanpa",33.743889,107.150833
"horni folmava",49.349235,12.854818
"dhing shah",30.944766,74.204391
"beckeln",52.866667,8.583333
"moukinga",-1.4833333,11.7333333
"dobrawi",42.45,25.6
"wam kach",30.239305,67.902606
"krutoberezhskaya",57.87263,47.626577
"remas",40.8863889,19.5113889
"ettinga",60.2,17.183333
"kakdip",21.883333,88.183333
"kalunjele",-14.4833333,23.9833333
"daille",45.461537,6.965241
"kariz-e bukkah",34.473652,62.41972
"fortezza",46.783333,11.616667
"malyy abnasnur",56.599444,48.376667
"ban hua phon",17.38773,104.693527
"muwaneyi",-14.9666667,22.6666667
"dongjiang fenchang yidadui",29.022907,116.108714
"jingjia",34.529543,107.559519
"sheikh tagheh",35.2541,47.6803
"kemajuan tanah lok heng",1.6979,104.1145
"talaviesi",57.2666667,27.8333333
"kigulu-ntengo",-4.65,28.7
"varam",11.55,103.8
"koilosion",38.1333333,24.3666667
"arrentella",38.616667,-9.1
"ibrahimia",31.2122222,29.9247222
"wangkal 2",-6.149167,107.091389
"hotot",49.166765,-0.0531
"east thirston",55.283333,-1.683333
"akdamfidanligi",36.834722,36.22
"wyganki",51.867514,18.002213
"komsomol'sk-na-ustyurte",44.1666667,58.25
"arix xiang",36.744167,81.623056
"kholetria",34.775,32.5875
"saevareid",59.75,6.116667
"palaiomochoustion",39.4755556,21.0363889
"salix",42.3083333,-96.2875
"ekusa",8.016667,4.65
"khasobas",41.7833333,25.6
"kivsharivka",49.621247,37.70357
"shevniny",58.373465,48.947255
"sjoholmen",59.433333,16.0
"liarum",55.95,13.85
"bonjaneni",-28.686541,28.976165
"kampong semenai",3.766667,102.383333
"tahaupu",-3.23282,127.656787
"mliha",-12.7483333,45.0530556
"viirumaki",62.966667,24.216667
"nanfutien",34.419722,112.419167
"gbararo",8.9,3.133333
"meiduo",32.40156,120.095592
"nawngsom",22.2666667,97.75
"rapusaare",58.6,25.6666667
"yi o san tsuen",22.2333333,113.85
"toshemka",61.3,60.166667
"pantangchang",25.866667,106.233333
"tiakalatou",10.55,1.3333333
"gol khanah",35.898624,64.814949
"schortens",53.533333,7.95
"shchedrin",52.8833333,29.55
"djambloukou",7.3333333,1.2333333
"sadlacken",53.871979,19.119767
"avderod",55.918188,12.43733
"tabagawan",7.390278,125.345833
"double run",31.8580556,-83.5583333
"pretusha",40.8191667,20.7263889
"behbahan",30.5959,50.2417
"mato do santo espirito",37.146082,-7.6238
"yelbara",20.233333,78.316667
"emecik",37.0,29.233333
"zhenxizhen",29.916667,107.5
"troshna",53.859843,35.754556
"agh miyun",37.9729,47.6506
"ban tuayang",12.863889,101.252778
"dongoc",10.616667,122.033333
"kungchuling",43.507222,124.812222
"utomba",1.85,9.75
"paulo oliveira",-23.8107,-50.3623
"cieciorka",53.930488,18.210453
"westswine",53.9,14.25
"barmah township",-36.016667,144.966667
"pasarmulia",-5.185517,103.93357
"ban nam luong",21.064722,102.861667
"sagatabli",6.0094444,-9.6952778
"mechtat dahmane el aid",35.9252778,4.5933333
"telcampa",19.666667,-103.833333
"matna",49.143749,14.941349
"maorui",18.674503,109.551233
"cujica krcevina",44.8266667,15.6561111
"from",59.15,10.266667
"atolotitlan",18.2,-97.416667
"phairas pira",38.58,44.8359
"divizia",45.943584,29.964718
"amboarokety",-18.8,46.4666667
"west stayton",44.7866667,-122.8655556
"biaso",7.1,-2.7166667
"wtelno",50.352002,14.697297
"phumi kouk kral",13.6333333,103.75
"manuel castano valiente",22.966667,-98.883333
"qojlu",36.9842,46.1345
"siakantu",-16.4166667,28.25
"gottlin",52.633333,12.3
"bethancourt-en-vaux",49.629357,3.147843
"nowtonak",33.802965,66.341506
"stoob",47.516667,16.466667
"polkanovo",50.307222,107.039444
"kampung melayu gambang",3.709,103.106
"la beilleuse",49.4375,-2.555
"vamvakaradhika",36.2666667,22.9666667
"sungyin",30.894858,121.235231
"langela",-5.0166667,151.25
"gross sakrau",53.281424,20.295251
"krykulec",54.483333,18.516667
"skipas",56.783333,12.65
"majma`ah",25.910968,45.356646
"iguazuru",-21.0666667,-63.1
"butro dya",5.9333333,-9.7166667
"merguinhos",41.051926,-8.638208
"balipinar",40.899779,34.984854
"liasu",8.316667,4.466667
"sarygurum",42.0833333,53.75
"hmaime",34.7833333,36.5166667
"kubansu",52.5,88.716667
"dabrugyaung",20.8666667,92.5833333
"chechangcun",31.840864,120.241718
"vermero",39.8997222,20.0208333
"sardeira",40.1,-8.2
"hwanggyeri",37.220556,127.015
"burgaasa",51.5555556,100.8441667
"rumah kayan",1.95,112.366667
"cuesta del pobre",-32.383333,-71.183333
"bezradichi",50.173839,30.596684
"niucheng",27.171944,119.983333
"taiyur",12.783333,80.183333
"mondur",59.9434,46.6941
"tal sepid",31.219864,50.418525
"swietoborzec",53.6,15.6
"new monmouth",40.4119444,-74.1036111
"krootuse",58.0711111,26.835
"arslani",44.2513889,17.4741667
"koissizra",6.307362,-5.374799
"jacarehy",-23.033333,-44.15
"chuegara",-17.15,-67.9666667
"ban pak khon kaen",16.733333,101.266667
"sitio vilson alves",-26.128355,-49.623963
"supshco",9.3666667,-82.6166667
"sarv aghaji",39.033056,47.609722
"hasankent",37.159022,38.960497
"al manashi wa `arramiyat al khudayri",27.4972222,30.7569444
"riviere-aux-graines",50.283333,-65.2
"chacsinicche",20.55,-89.666667
"bezimennoye",47.107164,37.938151
"gibton",31.889722,34.796667
"siaohoki",31.35,114.05
"phumi sre ponlai",12.7,102.7666667
"ihihech des ait mimoun",30.26892,-9.513568
"ban lahan yai",13.033333,99.9
"sengoro kulon",-7.824444,109.894444
"shikh"yakul",36.768724,38.931516
"budiawe",10.979,122.5612
"tingxiaxi",26.753443,120.087838
"kirkliyechay",55.8833333,25.6666667
"nuksar",37.428885,49.600022
"dan mayro",13.89,7.2963889
"gorelyy yar",57.946111,80.349167
"biscathorpe",53.35,-0.15
"saugor",23.833333,78.716667
"saiyad khel",32.601478,70.927718
"crni potok pri kocevju",45.5911111,14.8975
"spedak",34.612897,66.89567
"losning",55.802357,9.695386
"tarby",59.433333,16.566667
"padang hujong da",5.14,103.2406
"tszinutan",27.075833,110.348056
"kazansk",52.4,29.3833333
"las chimeneas",32.316667,-116.166667
"gitambutso",-4.0088889,29.8938889
"fukuno",36.583333,136.916667
"wan panglong",20.1166667,97.55
"kurumkan",54.3,110.3
"tchiuva",-12.304492,15.225001
"jdeide",33.6666667,35.6
"golubevka",55.401,93.8704
"quebrada del rosario abajo",7.7,-80.7
"nishin",34.234535,62.37254
"kampung lata janggut",5.6649,101.7692
"stubbsveden",60.15,16.116667
"plotitsino vtoroye",53.316667,36.85
"cingay",31.974944,65.466375
"ozera-mikheyevskaya",60.45,34.816667
"gopia",-10.3333333,150.5666667
"mukhammedamin-kotkay",33.281492,69.910674
"wangfeng",30.796182,118.224272
"ribno",46.35,14.1333333
"bodagole",11.5833333,16.0666667
"dadeli",25.643551,59.495557
"bairwar",24.9975,79.0206
"reserva",-37.827611,-61.220013
"deledino",58.240685,36.918349
"saint sebastien d'aigrefeuille",44.114907,3.994543
"gadzhymakhmudlu",40.485578,47.025475
"batu itam",3.2532,97.2085
"gostaj",34.091838,58.412431
"pundangni",37.369167,127.143333
"krajan gajahmati",-6.7618,111.046
"jonchery-sur-vesle",49.28952,3.813455
"bartoko",1.866667,127.65
"kvat-chuni",58.85,54.883333
"hongqiaoxinwu",23.465398,113.770655
"shushikend",39.77089,46.785743
"khawhai",23.366667,93.116667
"kantsjo",63.716667,18.683333
"mingueve",-13.516667,16.5
"batuloe",-5.518,120.2662
"krivoless",53.858056,32.571667
"esfia jan",32.708056,51.101389
"olhofo",-24.4963889,32.1775
"sukiki",-9.9333333,160.6166667
"bun i bad",38.248887,70.614194
"hunwick",54.683333,-1.7
"banjarnining",0.0016,101.049
"dar shu'iyeh",31.424758,56.270394
"tieposhan",27.459167,110.378333
"hilleby",60.733333,17.166667
"ancoraimes",-15.9,-68.9666667
"gorebridge",55.833333,-3.05
"sifri",37.669722,41.500278
"foxhol",53.17067,6.7116
"mintichen",34.583333,110.416667
"kot sarang",33.036406,72.385213
"sanjikchon",36.2598,127.2302
"brajkovaca",43.088611,19.354444
"bughmish",36.847598,59.245026
"busenville",39.9872222,-87.6755556
"msampa",-13.5,33.5833333
"gureyev",47.338987,43.253318
"panningen",51.329272,5.982866
"gnilushka",50.640945,45.394842
"nambolempek",-1.0766,122.7353
"liaropa",37.3833333,24.9166667
"jiangche",34.455534,103.007483
"cabo ruvala",-23.6972222,35.3636111
"casas cigarron",37.919538,-1.178156
"tutaniyih",36.6833333,38.4666667
"zangbusheh khuni",35.175154,71.458075
"tianhukeng",25.3225,113.594722
"kharij",36.856252,58.971928
"sledziowa huta",54.153175,18.101534
"thone",32.42845,74.743965
"jiangdafang",42.407778,125.291389
"jagersgrun",50.45,12.466667
"wehrbergen",52.133333,9.3
"do burja",34.683035,67.188147
"pinian banda",34.633606,72.370759
"oberruti",47.16859,8.402605
"eskieli",44.733333,33.6
"ban klong bang chan",13.816667,100.7
"darreh abi",36.0642,46.1896
"nazlet istal",28.3666667,30.6666667
"la challana",-20.9666667,-64.0166667
"khowrakabad",34.441881,50.081769
"hulans",50.65,3.266667
"paliokhoria",38.85,21.5166667
"crni lug",44.0758333,16.5816667
"podsopki",56.4233,93.2086
"al qulaytah",13.9152778,46.1575
"takoreta",8.0333333,-8.75
"lakkireddipalli",14.166667,78.7
"staroye kainlykovo",55.772323,54.43108
"katah tash",35.983463,65.129822
"pachakioi",42.15,26.8166667
"hemalui",-5.1333333,38.7333333
"liel-straupes muiza",57.35,24.95
"gjegja",41.8747222,20.4338889
"mombola",-15.8666667,23.05
"collique bajo",-6.8277778,-79.5613889
"asamakaha",7.8134,8.5156
"kurevino",59.376988,45.855153
"ruklade",44.4025,20.101944
"ladorkhula",33.599445,69.661389
"senja",-3.572778,119.557222
"huangmeichong",28.805,112.102222
"longmenxi",29.95635,110.708055
"lesevici",42.3675,18.725556
"pasirkaliki",-6.25,107.333333
"forte di bibbona",43.233333,10.516667
"sarab-e shan neshin",30.356575,51.344464
"saitz",48.873474,16.767259
"beikongtou",34.671667,108.313889
"aholfing",48.95,12.466667
"awband",32.983333,67.966667
"batlow",-35.519058,148.145966
"sa noi",19.338611,103.596111
"saitaw",17.1091667,54.4261111
"lanmashan",29.364897,109.115664
"saiyid gul muhammad",30.604407,66.623602
"saoleil ashraf",12.2833333,34.3666667
"xian huangbailing kenzhichang",27.346777,116.146571
"bagi barat",-7.3235,111.5923
"phumi prey khpos",13.3,102.8666667
"saint-medard-sur-ille",48.272024,-1.659682
"aimar",31.7527778,-81.6716667
"sugar mill estates",29.0436111,-80.9827778
"parker dam",34.2872222,-114.1422222
"wojnica",50.791158,24.675982
"delhi colony",24.831364,67.045095
"priluzhnoye",48.451853,28.282199
"geneyik",36.94467,37.309317
"wan hsa-pu",20.4833333,100.1333333
"zhangzhishan",31.924704,121.007075
"magtago",14.015278,121.131111
"matrah hal sa'd",14.7166667,47.0333333
"lokhtotkurt",62.716111,65.196389
"huaquere",-13.95,-72.3833333
"hitscherhof",49.25,7.533333
"angersbach",50.616667,9.45
"waima",2.85,26.15
"tordona",11.2833333,20.55
"montceau-echarnant",47.060718,4.658339
"malaya kudara",50.185,107.692222
"zvenigorodskiy",52.9198,49.1981
"2 de novembro",-8.85,-62.283333
"la navaja",18.65,-71.5
"viltovskiy",49.435667,43.692867
"goenoengtandjoeng",-7.311,108.2371
"allahdad bhambro",25.408295,69.420405
"jilmah",35.273111,9.423849
"bazirgyankioy",43.1166667,26.4666667
"alamance hills subdivision",36.0986111,-79.3977778
"bearra na gaoithe",52.4655556,-7.3997222
"khuon hay",21.583333,105.083333
"pasarlembu",2.9059,99.6583
"zernoka",37.471151,41.122001
"guaragi",-25.274167,-50.235556
"ait khijja",32.464375,-5.180031
"nihongi",34.883333,137.016667
"todeli",-1.681135,124.483435
"kateke",-14.7,24.8666667
"kuojiao",37.566667,113.116667
"bukabania",22.3,90.05
"inisdibi",40.726659,38.295993
"pocsapuszta",45.898437,18.479103
"kumbhir",24.916667,92.983333
"al hajj ru`uf shalash",31.7458333,44.4569444
"zimnitsi",53.977694,34.834074
"stallsville",32.9963889,-80.1822222
"sepeta",55.8,25.0333333
"chefe michula",-14.7130556,36.6322222
"osternach",48.316667,13.45
"bychchagdan",63.9,120.066667
"mumaj",35.704472,52.377662
"seyyed mohammad",31.629876,50.666173
"deutsch lodenitz",49.771426,17.377375
"passaramulla",6.7,80.7166667
"bithur",26.633333,80.283333
"baracka",48.1166667,18.4166667
"san mar",39.5508333,-77.6447222
"parchang",27.0235,62.0275
"leijiawankou",35.69099,105.672664
"curgos",-7.6347222,-77.8952778
"bedeyan",5.615469,-3.936323
"dunay-klyuch",54.4702,86.7055
"krasnyy derkul",48.854351,39.825006
"antbacka",60.384167,25.230278
"gaojiayan",30.608812,111.055731
"ban phone mouang",16.566667,105.9
"niederheesten",51.866667,8.983333
"techiman",6.6166667,-1.7166667
"la galeana",21.3,-97.7
"eumina",-26.316667,148.6
"san pedro arriba",5.638056,-75.915278
"zuke",31.158333,118.758333
"south richmond",39.8005556,-84.8883333
"kockonagi",38.336706,39.444459
"koker town",8.3055556,-13.0391667
"rangda",-2.4,111.6
"inhoptang",-6.940278,107.601111
"sarindaru de sus",44.683333,26.433333
"khvajehi",32.730816,59.113418
"garde terme",19.7166667,-72.5
"novyye popeshti",47.975833,27.989722
"maynamati",23.5105556,91.1066667
"hugogol",37.99,125.8708333
"luktenborg",57.95,14.0
"la chupalla",-30.383333,-71.116667
"pimeule",47.783333,-2.066667
"oykuru",40.15,37.25
"tendeparacua",19.891667,-101.433333
"chanaa",36.6333333,38.1
"ungwan darina",12.766718,8.290786
"gorislov",52.649563,32.817494
"ravongon",8.266667,124.5
"lagor",28.5,86.4
"orrea",43.322919,-6.545328
"nilawala",7.1833333,80.75
"dagamba",11.8,-0.9666667
"vrisoula",40.95,26.2333333
"chingamba",-12.816667,18.333333
"adatepe",39.56987,26.620788
"zapatoca",6.815319,-73.267684
"aboboreira",39.798825,-7.688863
"ban lo chut",5.849306,101.852972
"aurava",46.038333,12.883611
"bojongsinar",-6.6073,106.1344
"hiinan",7.383333,8.6
"kuanglingshan",29.787522,110.959711
"wochem khreh ghar",32.751111,69.293889
"bolangi",3.166667,29.716667
"dorlesberg",49.713056,9.504167
"gelaogma",32.301,93.601
"pasarengeng",-3.8796,120.3286
"hsiaohsitashih",30.77135,111.321458
"wardoni",-1.25,134.2
"guilingxia",24.871934,116.012774
"kampong batu thirty-seven",3.7414,100.9487
"naubatpur",25.5,84.966667
"shady knoll mobile estates",35.6269444,-77.3472222
"arakharwar",34.258333,74.283333
"ciudian",-7.4596,107.9011
"kpajaba",9.2333333,0.5166667
"dak wak tuk",14.95,107.7
"la hatte drouillard",18.5266667,-72.1769444
"amphoe chiang khong",20.261248,100.404613
"docz",45.433333,21.066667
"agatebi",-2.416667,133.25
"estaleiro",-12.25,-38.633333
"begonje",43.8069444,16.1747222
"aarab el moulk",35.25,35.9166667
"sei rotan sebelas",3.6201,98.7845
"anh do",13.383333,109.25
"adzanu",5.8833333,0.8
"mesaar",3.9833333,44.6
"nuqub as sufla",14.4833333,46.4166667
"halceni",47.433333,27.266667
"el- `adl",30.65,30.1161111
"odo-gbuwa",6.782309,3.769505
"sommerrain",48.816667,9.25
"terrier rouge",19.6333333,-71.95
"bagan dalam",3.2235,99.5891
"beroboka nord",-19.9666667,44.6
"taman tan sri manickavasagam",2.9328,101.8519
"wada jo goth",25.313348,68.841255
"chizhou",30.657778,117.483056
"ban nang toeng",17.012889,103.904195
"znetinek",49.469932,15.926191
"ali aq",35.271927,60.032526
"smyk",56.75,30.0562
"catome de baixo",-9.313471,14.920585
"barra de colotepec",15.843611,-97.021111
"garmavich",38.1066,44.5228
"bariswil",47.020249,7.526286
"maryudah",35.95,37.0
"guadanga",24.9333333,90.25
"pindi dhotran",32.429247,73.807407
"yanxiaqiao",29.107536,121.137736
"tanekodio",7.166667,-3.9
"budy tret'ye",54.9666667,24.25
"sitio visconde de sabugosa",-23.656258,-47.132743
"hsihsinchuangtzu",25.0666667,121.5333333
"zhaiyao",24.155,117.583333
"kukinia",54.166305,15.757817
"fadagwe",11.116667,13.616667
"mokambebome",7.8666667,-12.55
"xiaofenghe",30.941107,111.235061
"sufaila",26.4,43.85
"el leben",15.1833333,35.8666667
"villebon-sur-yvette",48.705944,2.240194
"lantao",10.4833333,-3.2
"xiaoqichong",27.573333,112.37
"pongpyongdong",37.9527778,125.8277778
"mimdere",40.466111,30.329722
"kaliumbul",-7.416667,109.074722
"wanodja",-7.1322,108.7833
"shopsha",57.420572,39.643979
"pir makan",32.283611,69.5725
"kampong sera",4.95,100.7
"pezmeg",61.824146,51.71869
"kuanhsiencheng",36.473889,115.432778
"schwangau",47.583333,10.733333
"dahan-e ab",33.434479,64.029349
"hamonville",48.828063,5.813592
"corrazal arriba",10.2783333,-63.4941667
"deir el jamal",36.4333333,37.0166667
"lesopunkt kuna",67.9,33.5
"obskoy",55.4749,83.4512
"dikgatlon",-27.1,23.083333
"mawdin",15.95,94.25
"quirigua",4.710334,-74.105534
"al hisyan",25.333876,46.023392
"kolodnya",53.122892,33.580728
"zonneken",51.183333,4.183333
"ban sang ke",14.636195,103.852778
"june street",42.2686111,-71.8355556
"chatuluka",-14.3666667,31.8666667
"venable",37.4061111,-91.9941667
"kattine",34.65,36.6333333
"casa robella bassa",44.783333,7.6
"takafu",36.616667,137.983333
"schorderup",54.7,9.85
"de-kamo",35.316667,136.016667
"oleni",37.75,21.55
"el hashima",10.6,24.8666667
"el mradiye",34.0666667,35.7
"manjung lor",-7.621389,111.281667
"kholda-niyeli",63.833333,31.083333
"rincon de py",-32.5,-54.4166667
"gitschin",50.435841,15.355569
"novouspenskoye",54.82,35.12
"sadoin",11.5666667,-2.45
"la maroutie",44.833418,0.568924
"rottofreno",45.05,9.566667
"sapronovo",55.8666667,29.1
"tepeboz",38.661869,26.447295
"mademar",11.0666667,15.3166667
"khor `agol",13.1,32.8
"dushino",56.900783,42.602924
"captalanfalau",45.436111,20.821944
"tingbu",22.799343,112.577777
"mirihanegama",7.6666667,80.1833333
"shangqitian",41.436539,120.247877
"darreh-ye kandah",35.769526,68.948015
"manogle",7.15,-11.1833333
"pangtouliangzi",47.803056,134.672222
"dyelelong",3.8833333,13.7833333
"banay-aul",43.119519,46.48281
"chungchenghsintsun",22.6166667,120.3666667
"linglongzhen",30.190074,119.637873
"hasnan yashut",35.3166667,36.1333333
"pasirkunci tonggoh",-6.895278,107.714444
"pateh khvor",38.3495,48.4927
"seuneubokbaoe",4.9323,97.7985
"combs-la-ville",48.664967,2.569571
"shangjok tong",38.4961111,127.3361111
"metequenha",-14.2336111,40.1422222
"la zacatecana",22.733333,-102.483333
"ebermergen",48.75,10.716667
"donje dajbabe",42.405556,19.228611
"kot isa khan",30.95,75.133333
"san pedro yolox",17.616667,-96.566667
"lattenbuch",49.2,10.45
"hashem ela",36.95098,54.13941
"cheshmeh sabz gholi",29.893,56.1327
"bhabianwali",29.869701,70.955823
"tarze",31.502,98.002
"kalateh-ye akhvondha",32.305267,61.347488
"la chorrea",4.053056,-75.905556
"votrome",6.8166667,0.7833333
"buah raya",2.9426,98.9258
"birukher",31.026127,51.003694
"baaluk",16.6,35.2
"mikebi",31.191251,-5.670417
"pankuotzu",22.85,120.4833333
"ainkhausen",51.4,7.933333
"abu as suwadi",19.45,40.916667
"dostagir",40.320556,46.691389
"qabr-e shaddad",32.003611,49.57
"kaitwa",-15.9,23.15
"nanbianhujia",28.996182,115.923922
"shana`ah",36.6333333,38.1
"kadihagama",7.45,80.4833333
"barany",54.9166667,26.1166667
"bol'shiye dageti",41.5263889,44.5275
"conthil",48.892659,6.661821
"ban khok chum bok",6.228444,102.001056
"dander dua",-8.0962,112.283
"bomba fofana",7.712621,-5.631201
"kanar-e deraz",27.045265,54.1262
"hijin",36.133333,126.6
"eggerszell",49.016667,12.616667
"douar medaiza",35.3197222,0.5411111
"makampee",2.8333333,-55.3833333
"monte dos zebros",39.821074,-7.140973
"kupturi",37.1144,128.766
"lerek",-8.1375,114.3271
"peucarna",-13.9166667,-61.2333333
"recobanteng wetan",-8.2087,112.6205
"palazzo del mayne",45.85,12.433333
"vitsla",59.1322222,25.8194444
"nanlia",-13.0966667,40.2941667
"pranchaung",20.35,92.7166667
"sao pedro do corval",38.446663,-7.464697
"kampoeng wawesi",-0.75,131.95
"el nacascolo",13.6333333,-86.8833333
"pupalzay",31.693358,64.653116
"zardakpuza top",34.583116,67.488703
"bara aulia",26.2666667,88.4333333
"kazaryata",56.866351,42.677954
"galminaiciai",55.7333333,23.2166667
"ghiignir",7.133333,40.7
"teslin",60.166667,-132.7
"wagawatta",6.7166667,80.1333333
"jamboalurgani",3.851,96.9791
"ho-loi",23.25,98.8833333
"yanwoli",29.886633,117.603225
"ridenour",36.2263889,-83.9527778
"haituanshe",23.1,121.1666667
"kwangsongmyon",36.2572,127.0983
"duayeri",40.948088,37.450067
"xiageta",39.161103,112.299184
"khoshdara",38.4816667,69.4525
"boukous",4.0333333,10.3333333
"fechtig",32.7688889,-80.9641667
"ban pu kha luang",18.772861,99.116722
"sanbal",30.433333,71.533333
"orsasa",57.816667,15.683333
"ambanie",-19.1333333,47.85
"kurqan",36.625606,55.056439
"koraf",6.582222,46.433333
"slouq",36.5833333,39.1166667
"haraagiin den",48.9166667,106.0833333
"gross krebs",53.737467,19.030003
"yeweyzero meyram",8.466667,39.566667
"pierkensstraat",50.9,3.783333
"basurina",26.05,-107.866667
"maxhar",42.447778,20.718889
"wnioke",7.159,6.3289
"tanauge",-1.9594,121.4217
"demmed",34.1666667,3.5333333
"jaisinghpura",30.6527,76.8857
"lechina",10.079593,11.90433
"condamine",-26.933333,150.133333
"shahrak-e zibashahr",35.4311,51.5797
"kamimyo",31.316667,130.9
"yukari bayindir",39.898763,32.971458
"francisco j. mugica",16.052778,-92.216667
"khele haji abdul mohdkhan",32.187916,67.05946
"chongnamni",39.5711111,127.2677778
"tiemporosso",13.1,-5.15
"zurabad",38.803889,44.583611
"pryayema",58.8922222,25.5397222
"daydati",26.3095,60.6753
"gewang",-3.4696,119.6955
"niuchia",45.35,126.716667
"qarya hakim saheb",33.563056,68.411389
"basti amrani",29.691667,70.447222
"cao son",22.679635,105.280538
"niemis",66.283333,23.633333
"neuenkamp",53.6,8.883333
"sutsunchen",37.360556,115.269167
"madago",17.383333,120.7
"kosogorskaya",54.4453,60.0305
"kidare amat doungous",12.3833333,19.6333333
"manz",34.153611,71.940278
"wehningen",53.166667,11.166667
"taleh va barfak",35.4,68.166667
"hengdaojie",41.300407,122.043704
"celiste",42.731389,22.16
"berikulskoye",56.209167,87.057222
"madina mala",12.4333333,-14.2833333
"menfor",13.0333333,31.0333333
"pingnamhsien",23.554303,110.397567
"turgunskiy",50.154362,46.407166
"dabiou",11.15,-2.15
"cheshmeh golek-e bala",35.640651,59.569296
"penzendorf",48.016667,14.1
"orebro",59.283333,15.216667
"stary chwalim",53.775519,16.409134
"cha tu",20.166667,105.966667
"miclosanii mici",45.15,25.233333
"yorkshire acres",38.7836111,-77.4408333
"gokjeh",37.493611,55.501389
"butenishki",55.9833333,26.8333333
"san juan de la penita",23.3,-100.0
"oueme",9.7097222,1.9525
"sarakan 2",-6.122222,106.561389
"lekwivu",-2.483333,16.433333
"ilorog",7.916667,124.016667
"deutsch bahnau",54.480898,19.900718
"bokurdak",38.7666667,58.5
"dinaey",9.5113889,138.1038889
"gudderath",51.116667,6.433333
"matto grosso",-15.0,-59.95
"swalecliffe",51.35,1.066667
"illyudong",42.2458333,130.0930556
"glendengan",-8.189,112.237
"phumi kam prak ka kon",12.55,103.7333333
"starochesnokovka",54.183333,51.316667
"pul-i-tang",32.8529,48.0
"dimerta",37.296816,44.451572
"saiyiduwali",32.192222,71.033889
"ban setthakit",13.73731,100.37808
"keynik",39.293299,45.661258
"valiabad-e cham puneh",33.5696,47.8985
"magagalin",13.76204,120.94221
"bojonghaleuang satu",-6.861944,107.454167
"mandaluyong",14.270284,120.914569
"chunggyebondong",37.64803,127.08552
"kugu'iyeh",28.3485,57.7115
"selento",-7.146389,110.193611
"ollo",-21.4,-65.9166667
"senatobia lakes",34.6208333,-89.8752778
"scott park",36.0772222,-79.7652778
"mayeh darrahsi",39.4,48.066667
"kanshapara",24.75,88.7833333
"seouadou",9.1666667,-10.4333333
"ban chu po",6.020861,101.200694
"kund utla",34.629569,73.178646
"deresen khashatoyn khid",46.8333333,113.6666667
"konulmi",36.893889,128.954722
"boresse",45.283333,-0.116667
"panin-lipetskiy",52.1304,40.3299
"abba bor",8.427595,36.134327
"ujumuya",15.2833333,-83.9333333
"kabunva",5.7,-9.6833333
"manlikhune",35.3125,71.521389
"xingxicun",42.590568,128.991322
"lachirioag",17.333333,-96.166667
"rattepata",-2.3948,119.6484
"skrivany",50.266405,15.499185
"ugolki",53.355,68.578333
"vermilion hill",40.1805556,-74.8288889
"dachny",46.981003,40.005001
"luoshicun",28.779474,115.658229
"dabcze",51.820431,16.654399
"mabonkai",8.9166667,-11.8833333
"nalai",34.689713,70.244095
"asiab abad",34.001788,61.972019
"kampong padang enggang",6.083333,102.25
"hwabongchon",37.9968,127.0347
"kampung kuala gemas a",2.6764,102.7479
"teniente general r.m. fraga",-23.75,-62.15
"sareyn",33.8312,47.4273
"c. nhancoja",-24.2972222,35.1233333
"shmydovo",50.8425,35.7168
"dubasiewszczyzna",53.545981,23.147474
"khosh rabat",34.654735,62.104333
"mukhrani",41.9338889,44.5766667
"mufwie",-10.1333333,32.2833333
"nemediszolo",47.337382,19.221388
"leksyn",52.525046,20.040935
"pasching",48.25,14.2
"kwisangdong",39.9166667,125.9666667
"keranaipudchcheri",12.847222,80.086667
"teguemon",13.8833333,-88.3666667
"shea terrace",36.8419444,-76.3252778
"jatibedug",-7.818611,110.791667
"pir ji goth",27.647222,68.041667
"kakio",20.7133333,-155.9966667
"ziam bangla",34.298847,71.728178
"hobo a",-8.7672,121.1649
"villars-et-villenotte",47.51167,4.377503
"darrahe bogha",34.460881,68.488066
"gogok",6.1566667,31.2816667
"linkou",24.753046,118.536227
"phumi sangker chong",11.15,105.45
"hatae",37.359722,127.150278
"sunray",34.4125,-97.9647222
"piedritas",-34.768324,-62.983655
"estawi",33.14844,63.929204
"xiangfengling",34.961013,119.025144
"balujah",36.7833333,39.9
"ap cay gian",9.212222,105.489444
"muzanga",-19.8894444,33.2747222
"cotmurong",5.253889,96.962222
"takhiatash",42.3361111,59.5663889
"chak one hundred twenty-three nb",31.88313,72.511567
"knais",35.716667,10.816667
"vil'nyus",54.6833333,25.3166667
"krajanbanjarejo",-7.1016,110.3463
"vashkouts",48.384915,25.510231
"`abdur rahim kelay",32.70046,66.714944
"al ma`qas",19.512087,41.666994
"kobus",52.75,16.1
"lannijing linchang",25.429444,114.256944
"pinggangn nongchang",21.712778,111.889722
"kosoy bor",58.170235,32.944292
"banay",-24.45,46.1833333
"dagoshi",8.092222,7.05
"gongobli",6.8380556,-9.4958333
"sekera",1.283333,111.416667
"santa jorna",11.7,-86.0333333
"senhor bom jesus da lapa",-13.25,-43.416667
"maiorga",39.579483,-8.980266
"udungol",38.6833333,125.65
"skibby",55.751225,11.960827
"bordj mohammed el hadj ali",34.715556,10.397778
"bardina",41.2358333,21.2425
"nigre",5.620333,-7.357796
"nantawarra",-34.016667,138.233333
"budzilowko",52.181525,17.586569
"caneja",38.026581,-1.958602
"onsenso",35.238611,139.037222
"zhongjia liangshang",32.981151,106.015524
"amrollahi",27.9207,56.6051
"totocimizpa",19.683333,-103.816667
"saint twynnell",51.640556,-4.961667
"pokokiri",4.634842,6.554614
"langania",-3.0333333,151.6
"tatterset",52.833333,0.733333
"aek polan",2.8712,99.4896
"rupascahuasi",-14.3338889,-73.6680556
"berdniki",55.25,38.833333
"barrandov",50.030372,14.391473
"kostanjevec podvrski",45.8333333,15.6
"chiesa in giu",42.75,11.4
"laleh bejan",38.667,46.7861
"melini",34.8666667,33.1583333
"mousegogoua",6.483611,-6.606111
"vertedero",18.0822222,-66.2455556
"la cueva del tigre",13.3833333,-86.7666667
"el carrizal de arriba",-33.224171,-68.839849
"moskuliki",51.815849,19.528276
"yuretskiye",58.839579,41.41934
"ban song kalia noi",15.224639,98.440389
"massaria",12.5658333,-15.6311111
"ungwan chori",11.014669,7.428066
"kaufbeuren",47.883333,10.616667
"alt schledehausen",52.283333,8.233333
"nyalempen",-6.87,106.838056
"cukurkuyu koyu",37.869259,34.336114
"ungwan mallam",11.087729,7.408679
"zengjiangbu",23.909596,115.338903
"river village",53.3155556,-8.7161111
"banos de panimavida",-35.75,-71.416667
"sodra hetseryd",57.3,14.533333
"araesandae",39.2166667,125.35
"wan hsenwo-tawng",21.5833333,101.1
"upper shotover",-44.833333,168.716667
"derti",53.65,28.4666667
"kafr ad dams",30.1558333,31.0325
"higienopolis",-22.876087,-43.263984
"oszczepalin",51.751083,22.406978
"rolin",48.982148,14.044552
"kolotayevskiy",49.8514,42.4507
"vigla",39.0855556,20.8616667
"dargahipur",30.616667,72.433333
"bradosavci",42.11,20.724722
"wieclawice dworskie",50.166667,20.016667
"daizhong",30.263333,122.165
"kodalikkallu",9.1333333,80.7
"azimganj city",24.233333,88.25
"holmes' rock village",26.55,-78.8333333
"santa giuletta",45.033333,9.183333
"barrio navalmoro",40.333333,-5.516667
"kuh-i-nau",29.283333,57.2
"mintaragan",-7.838056,110.424722
"tszyuanchzhen",37.438333,115.582778
"vikhorikha",56.748905,40.426192
"kundzh",35.921991,68.635344
"yuantongba",32.067239,106.856324
"denansri",-7.751667,110.11
"revan",40.1811111,44.5136111
"dhi na`im",14.1,45.45
"pisanskoye",57.361709,62.146737
"athob",26.781944,73.015556
"kharashabad",37.666535,57.075448
"leuwibanteng",-6.2884,106.2707
"urbanizacion villa salem",1.619451,-75.597723
"jingshi",29.800117,117.547323
"malarang",12.1135,123.8402
"salu mahalleh",37.093611,50.344387
"shuangyu",28.020266,120.605283
"kargajpur",25.641667,75.549167
"san felis",8.3672222,-62.6616667
"gheshlagh sadat",33.654637,49.756369
"jojici",44.1597222,17.4225
"elsleuken",51.016667,4.916667
"sirenevyy",55.505556,65.3125
"thiramona",38.0833333,20.7166667
"halali rest camp",-19.0333333,16.4666667
"colonia teniente a. dakan",-25.583333,-56.816667
"ban phraek chum rum",13.687806,101.009167
"jeladriasri",-7.1989,112.2602
"el riqqa",29.4172222,31.1925
"donje korminjane",42.506944,21.626111
"macallacta",-15.4197222,-72.6802778
"goth taju",24.599543,67.956786
"el salate",26.983333,-107.95
"adumama",4.361743,6.541259
"hoperang",-6.2,146.4666667
"kafr as saqqa'",30.8275,30.6247222
"kedung",-6.6702,110.6672
"batugong",-8.4572,117.3409
"nicuva",-11.4666667,39.1833333
"zegray",7.0672222,-8.7355556
"lujing zhen",34.319781,104.55724
"sebil",37.7149,127.6339
"nagorno-tuzlovka",47.8325,39.405278
"ohava",-16.45,-143.9666667
"drayton bassett",52.6,-1.716667
"al qadimah",22.349146,39.155407
"kombinat",50.832222,37.817222
"sinyanga",-16.7666667,24.9833333
"herneacova",45.85,21.516667
"valparaiba",-22.666667,-45.016667
"qanndildjiq",35.7333333,35.8833333
"buon gor",11.516667,107.416667
"luchtbal",51.25,4.416667
"dalandolok",3.05,98.816667
"weirsdale",28.9816667,-81.9244444
"gouyawei",34.058333,118.583333
"eyubnebi",37.359487,39.641321
"chungimdong",34.916667,126.483333
"ancon garza",25.05,-99.916667
"pahomba",-10.0493,120.1929
"oigarkai",32.0,94.7
"verkhnyaya yesaulovka",55.6756,93.7857
"wayangou",30.82418,106.378168
"shangzhi",25.118333,118.043056
"villajane",43.072149,-6.882929
"ekpeazizi",5.42368,6.730599
"michldorf",49.616667,12.25
"bayryaka-tamak",54.733333,53.466667
"rugar kanya",12.294147,9.163545
"el aarme",34.6333333,36.1666667
"zarzhavinskaya",53.9347,40.6683
"kyzylbalyk",46.933333,50.533333
"altreisch",49.179485,15.595067
"emoneni",-11.65,33.6666667
"tardjiguel",10.2166667,19.45
"dove rest",33.5666667,-84.2247222
"ivy",34.1280556,-92.5294444
"oulad allal",29.25,0.2
"canoliabatilla",-21.6833333,-66.1333333
"krajan atas",-7.2675,110.382778
"voldokurye",64.624859,43.384119
"teleseuca noua",48.281389,27.888611
"huhnerhof",49.75,7.65
"store rorbaek",55.799135,12.116607
"ribiera",44.106721,6.838027
"hsingshunhsi",41.265833,109.983889
"solokanjeruk",-7.011944,107.741111
"litang",30.322072,118.33675
"barjoveni",46.8,26.716667
"tlatemalco",20.5,-98.716667
"bilthra",26.123056,83.868889
"beit ej jebel",34.8666667,35.9666667
"les coteaux",47.79266,2.435237
"brondo",-12.983333,-39.6
"mukawir",31.566229,35.636367
"gradac",42.9480556,17.7347222
"legokdjambu",-7.027778,107.503056
"santiasromo",-6.849722,108.302222
"loblob",10.066667,124.316667
"khirbat `azim",36.7166667,40.7333333
"allanson",-33.33588,116.099403
"moussoul",36.335,43.1188889
"novoselpokrovka",47.760364,31.877602
"xiangkoucun",22.140394,110.654714
"anydron",40.8352778,22.2027778
"oleac",43.161414,0.189007
"oberache",9.833333,35.3
"mokutu",-5.15,17.033333
"jinji",32.566667,119.066667
"ban wiang suttho",19.944,99.215972
"dobrevo",43.75,27.8333333
"aguapepe",24.033333,-106.866667
"gross kuren",54.941913,20.03745
"bekoiana",-9.0666667,149.2666667
"pula",29.533333,94.416667
"majdan jeziorka",50.933333,22.483333
"orenboyali",37.23543,32.649478
"rancho el gallo",24.366667,-105.833333
"landjunguaru",-3.670318,128.145975
"sarkun",32.966667,48.8
"lafiyari",10.5351,9.924646
"resok",6.393639,101.518472
"shah ghar",29.3625,67.2676
"osetin",51.337778,59.785556
"mokhtavay-ye `olya",33.633333,48.533333
"zir bandar",26.827526,60.081569
"jaggisbachau",46.96396,7.314665
"yangi-nishan",38.6561111,65.6997222
"tegueste",28.516667,-16.316667
"quetaihe",29.363644,109.685139
"llano de animas",14.466667,-90.6
"daizijie",27.081944,109.975
"vera grande",9.9505556,-69.6716667
"laleh yadegar",34.2858,48.210215
"lingkakuta",5.2421,96.8874
"citarumpermai",-6.322222,107.311389
"sajan kolhi jo goth",25.495426,68.868614
"neerhespen",50.8,5.05
"rumihuasi",-14.6666667,-73.5166667
"bidri",11.5666667,16.2166667
"langanshan",24.213889,113.305
"kawjak",36.7027778,38.5583333
"brovic",44.534444,20.138056
"karez-i-jahan",34.741529,62.175212
"linh tao",22.683333,106.083333
"bard zardi",30.479192,51.488861
"novovolkhonovka",52.318664,39.944847
"kuzemetyevo",55.8067,48.8854
"los agallos",7.85,-80.3333333
"rakab",14.5833333,49.2166667
"bairin qiao",43.283333,118.6
"sabendjeca",-25.4333333,32.0166667
"agoudal n' ait brahim",32.008807,-5.491381
"ankara",42.55,43.4
"pursavakam",13.081667,80.2525
"bhairiguri",26.444114,89.915685
"volperino",42.983333,12.866667
"phumi modum",11.4833333,105.15
"ad damayirah",31.3263889,31.2458333
"goloyevka",54.123119,32.736553
"skurgwy",53.553932,18.898515
"tesoro",4.037846,-72.631631
"khayr`ali",34.119629,65.68399
"buon jung",12.633333,108.166667
"radam",15.4219444,43.7775
"meretskoye",53.5743,82.3978
"torqebeh",36.3104,59.3735
"kulay-kulay",5.945278,121.2325
"arkipuszta",47.401499,18.223375
"san antonio ozolotepec",16.133333,-96.266667
"an ly",15.633333,108.333333
"oberkrumbach",49.55,11.4
"arguiouine",34.826954,-4.752326
"chamucinda",-12.866667,18.55
"faqih ahmed",28.3855,51.3538
"nkporikpo",4.925976,7.486199
"mazra`at al `urqub",33.4,35.5375
"lederling",48.466667,13.033333
"chikulikha",57.836747,35.738454
"divasan",34.0553,47.7561
"la caseta",9.1055556,-65.9027778
"cidalanda",-13.7666667,33.6333333
"vavozahana",-17.5333333,49.25
"kalgajigol",36.6394,129.1916
"kharbata",31.95,35.066667
"kilungu",-6.116667,24.283333
"boroi",8.3,35.433333
"unter berkowitz",50.39244,14.442869
"san lorenzo cuautenco",19.195833,-99.633889
"porambe",7.2833333,80.35
"sakarca",36.264752,33.189176
"daikando",40.2083333,125.2027778
"hirbakaplo",37.237778,40.941389
"hosein abad",27.173573,60.459762
"sincha garcia",12.35,-14.25
"najle chak",32.870833,74.626389
"yugutan",37.7708,127.9676
"cas chikitoe",12.1166667,-68.9666667
"tswaaneng",-25.150499,27.118656
"yalokenge",-1.15,22.933333
"daudzai",32.434034,64.479922
"kebonpenjara",-7.493889,109.3025
"kogin madaki",9.333333,11.216667
"grunefeld",52.683333,12.966667
"aitzendorf-hermsdorf",51.083333,12.866667
"adadere",3.2666667,45.6333333
"ban thung mai duan",6.712861,100.309194
"savenfors",59.883333,14.533333
"choqquequirau",-13.3833333,-72.8833333
"draskici",43.9138889,18.2269444
"weitaoho",31.966667,109.116667
"kubetskishki",55.3333333,23.2
"khirt",33.325139,50.144645
"drehidaclare bridge",52.4033333,-9.7333333
"fanqiao linchang",27.38,117.808333
"beablo",6.378873,-7.333966
"kannussuo",65.116667,31.9
"suifenhoshih",44.4,131.166667
"velin",52.2,30.5666667
"igam",7.283333,8.65
"zberzynek",52.434761,18.118095
"malyye loshkovitsy",59.583333,29.383333
"marah bakdash",34.3,36.3666667
"linchiaotou",30.014617,120.18106
"sundki",33.741389,72.613889
"pasacom",14.8,-90.8
"qizhen",31.683868,118.31007
"lambjerg",54.93433,9.890279
"gwachipe",9.266667,7.066667
"moulouang",12.45,14.8666667
"caserio hoyahermosa",38.25,-1.15
"gridi",-7.2538,112.4388
"zivkovo polje",44.9347222,18.3780556
"los lorcas",37.822916,-0.787232
"sorkh qal`eh",27.8016,57.9799
"pobla de segur",42.249185,0.967787
"`isaabad",37.4717,45.2118
"fuqingxiang",32.447395,106.216295
"`ambar sumuch",34.802934,67.588711
"harso",38.508263,35.967852
"humpum",25.066667,94.366667
"majri kalan",30.1328,76.7265
"culluri",-18.25,-67.55
"idumunni",38.9494444,127.4497222
"kasian kulon",-7.836944,111.239167
"redgate",52.1038889,-8.9058333
"ahouahikoro",8.300366,-3.95188
"marinci",45.1855556,17.9855556
"kissee mills",36.6836111,-93.0497222
"xiasujiazui",31.8815,105.928523
"rapitok number 4",-4.3833333,152.1166667
"qinglinchang",31.75521,105.802365
"rabinsma",12.0355556,-1.6380556
"kwaaiman",-31.918726,28.979203
"adoungous",11.25,19.6333333
"port murray",40.7855556,-74.9163889
"tiankuangtou",27.221667,111.206389
"glass house mountains",-26.897579,152.953186
"yigitharman",38.971031,40.96977
"tazeh",32.5892,49.3706
"mogbo",7.7,-12.1166667
"kamnla",39.7658333,20.8675
"verkhniy yemash",56.410092,56.016675
"egyhazasradoc",47.089114,16.617431
"ban wang yai",15.916667,100.283333
"dolgaya kurya",58.783333,62.416667
"doplangsantren",-7.4375,112.5541
"kumgwang",39.6277778,126.0591667
"agrate",45.566667,9.35
"velingara lali",13.5,-15.1333333
"suhailpur",23.9833333,91.1333333
"tusaquilla",-23.180339,-66.038007
"bogbalu",3.916667,20.15
"mengan",4.0,12.1833333
"kansheng",19.511076,109.741161
"jodenpeel",51.539499,5.8379
"tall abu rasin",36.9527778,41.1411111
"tuchondong",35.935415,128.460278
"mukura west",1.5666667,33.6166667
"bakcharang",14.509056,103.557445
"zaslaw",49.525328,22.257424
"rosberga",57.35,14.116667
"ungarie",-33.637772,146.976166
"lekati i",-2.6866667,13.8277778
"delyal k'oy",43.05,26.2333333
"standard umpstead",33.3730556,-92.6747222
"soksongdong",38.2569444,126.6727778
"radobycice",49.69659,13.396072
"goth sarai bachal",27.134296,68.320298
"amuvi",5.407165,7.873932
"radnitz",49.858021,13.604894
"sefid darak bon",37.08474,50.246273
"laussonne",44.969407,4.052723
"champaneri",25.966667,74.85
"ban latsa",21.033333,102.1
"phumi chruol",11.35,105.4
"banjar takmung kawan",-8.5498,115.3919
"cikulur satu",-6.5003,106.0635
"moriyani",32.272711,67.670752
"diskamajor",46.85264,17.463697
"morindo santana",8.886492,-76.158888
"stogovci",46.6969444,15.8461111
"brzohode",44.366944,21.276944
"kaguso",-3.4666667,152.2333333
"svyetlen",43.3166667,26.2833333
"pehleng",6.8680556,158.1594444
"farkil",11.3166667,19.1166667
"mukenda",-13.3,23.3666667
"chefe nivinho",-15.0438889,36.2413889
"toteali",32.793056,74.809722
"khazineh-ye `olya",30.7204,49.5351
"dharmahata",24.3,88.8
"wetakara",-8.6741,122.2515
"biterfo",11.4,39.083333
"komarskiy",51.598056,120.024722
"malyy ruchey",59.666667,34.2
"fougayroles",44.018788,3.350619
"kwelo",8.65,-10.95
"bauravilla",51.605,-9.2713889
"escuela tinavita",6.32946,-72.824575
"dangjindong",37.024444,127.441111
"kadagi",34.611531,66.994245
"sidi jabeur",32.389518,-6.420946
"peake",-35.366667,139.95
"phumi krang sla",11.2666667,105.4166667
"el coholle",4.85,46.5166667
"lugogo",-5.483333,28.983333
"tuxtla colorada",18.466667,-95.3
"stornarella",41.25,15.733333
"petroaia",44.366667,23.5
"ganju tahir",30.497222,73.75
"chu mai",20.8,105.816667
"sanchang",31.894722,121.237222
"ulsvik",59.854444,10.677222
"bon garand",47.280596,-1.695598
"terebreno",50.7199,35.5112
"char bolagh",36.767413,66.705545
"havadto",46.433333,24.8
"urengoy",65.966667,78.366667
"tingchiutzupu",23.5,120.1833333
"andryush",55.3014,53.6367
"parrita",9.52012,-84.322487
"kayutsahin",12.252557,-71.683288
"polumyza salevere",58.69,23.5980556
"nazlet hamid",26.7833333,31.4333333
"palmar de los angeles",-19.05,-60.35
"sardar dinar khan",29.898966,67.091863
"flickerville",41.22,-87.9561111
"anguktong",37.7466,128.828
"laowocao",29.343055,110.17011
"suystamo",61.916667,31.15
"la amelia",22.5166667,-83.5
"ortega forest",30.2613889,-81.7108333
"kayhauserfeld",53.166667,8.066667
"estabel",33.5361111,35.4611111
"lianmaokeng",26.0175,114.782222
"sahao",26.2139,79.3241
"sabana quemada",19.0833333,-71.5666667
"ban konpok",20.200556,101.368333
"rindlberg",48.616667,14.783333
"brookfield east",34.8533333,-82.2905556
"san jose de ciruelar",17.233333,-99.666667
"itabirinha",-18.533333,-41.25
"kattendorf",53.85,10.016667
"klein jagodnen",53.914567,21.716581
"gresaubach",49.45,6.9
"ban thale nok",9.433333,98.433333
"ahmad mardeh",36.147,46.7132
"togzar",35.132505,69.059771
"wangabum",25.95,96.9833333
"mahamaditta",6.1333333,80.65
"curmi",35.878333,14.471944
"ghuchzamin",34.529097,67.604754
"deli re'is kahnow",30.28,51.802778
"vega",-8.428128,20.737481
"shur dar",33.5743,49.0496
"villemarechal",48.267005,2.866862
"kani chenar",35.515,46.008333
"maypangdan",11.651944,125.450278
"bekao ii",7.9,16.0833333
"siaira",34.504312,-4.031606
"rabat zeyd",34.006828,63.801005
"nagy pal telep",46.429592,18.193017
"tan trai thuong",17.033333,107.083333
"suwarapola",6.8,79.9
"hacienda humaya",-11.1,-77.4166667
"zafarwala khu",31.425,73.827778
"tkispiri",41.25,44.2166667
"gross ludershagen",54.283333,13.066667
"kampong chikus",4.066667,101.116667
"hongtoujin",27.849683,120.306298
"allemont",50.716667,3.716667
"xiaojiaokeng",24.066389,112.536111
"lammerweg",52.969662,7.153682
"ein sara",32.988295,35.093203
"dansule",6.635278,124.586944
"akotuako",5.85,-0.45
"ban khlong seni wong",13.921222,100.303278
"wazareh",31.390963,69.899448
"awhitu central",-37.083333,174.583333
"baiqiwei",23.156389,114.884771
"pitorai",26.75,70.933333
"teisoara",47.833333,26.616667
"paramnagi",39.4736111,126.7916667
"ta'ib khel",32.977046,67.778093
"popitten",53.934479,19.55813
"samuxlu",40.508333,47.169167
"shingjon",41.1166667,20.0166667
"hobersberg",48.733333,13.5
"mollapattan",23.0166667,91.0
"limonov",43.6666667,27.7833333
"bilyun mahiyan",28.738889,74.663889
"kalateh-ye `abdul",34.106767,59.176634
"ssuanchen",30.898333,119.653611
"thunderbird valley number two",33.6152778,-112.1122222
"yttertallmo",63.666667,17.95
"dashuiyuan",25.113133,116.647269
"nipixu",26.940833,111.256111
"san alberto",-26.8,-54.983333
"paddys flat",-28.733333,152.416667
"bad voslau",47.966667,16.2
"intelwakondre",3.3666667,-55.4166667
"la font",45.616667,3.6
"sitio neno bordinhao",-25.8229,-49.1285
"corgo de sao domingos",37.712722,-8.678376
"mankanabo",40.917486,39.292389
"gaj policzko",51.038262,19.936502
"koydinovo",56.3892,36.0447
"tunanen",61.816667,31.083333
"oulad djilali",35.9786111,0.78
"kukulamajor",46.288611,19.152769
"sengoro",-8.633333,117.75
"purshikha",58.1822,36.3852
"bid meshk",29.038611,56.233611
"dentema",10.4,-14.4833333
"andranonampanga",-17.7166667,47.9333333
"wesley center",39.9588889,-98.3247222
"ru kol",36.589722,71.408056
"collepizzulo",41.65,13.816667
"minuwangete",7.7166667,80.25
"paltapunta",-20.9666667,-65.7666667
"smolchev-malinovskiy",44.863333,40.429167
"roba butta",6.816667,40.766667
"butuyu",-3.4,33.3
"angon",3.75,11.35
"wetelia",-1.933333,21.333333
"tsavongo",-16.8333333,44.6166667
"cha cafucha",-9.308046,19.592174
"humaerh",51.883333,126.5
"qasrunah",36.7147222,43.0055556
"phumi chan ta ngoy",13.5666667,106.05
"qarah kilisah",35.85,36.0333333
"gunungsimeut",-6.607778,107.001944
"konghyonjilli",38.353333,128.508056
"subzin",53.9,12.35
"pangzhangzhuang",37.262222,116.536667
"gluhavica",43.06,20.385
"ban ti pong",6.314833,101.065222
"sezimovo usti",49.377523,14.702868
"tongzhongkeng",24.394722,117.085833
"kouei fan",22.15,106.166667
"cesarea",40.7108333,-82.4819444
"sina-deye",12.8333333,3.3166667
"petropavl",54.875278,69.162778
"ronneter",51.183333,6.4
"du phodrang",27.4833333,89.9
"banner crest",39.2355556,-121.0180556
"esh-sh`eitiyah",33.2,35.2666667
"twindorasi",6.6166667,-0.7833333
"magado",0.6166667,38.05
"galaha town",7.2,80.6661111
"tzoudene",30.762075,-7.863146
"matagguin",16.9,121.266667
"khak-e kohneh",32.752237,67.028051
"holmvik",64.466667,14.166667
"kembangjati",-8.127222,110.774167
"bar fuladi",34.084395,68.130447
"crombrue",50.65,3.25
"akromanto",5.9833333,-2.15
"songjangni",41.0647222,126.7405556
"puanting",25.766667,104.65
"laczka",52.137033,21.951309
"vallered",57.95,12.05
"gontalde",43.111042,-8.901819
"bishqem",41.0702778,19.8663889
"bruchen",51.016667,7.733333
"yolluyazi",39.680589,43.015967
"yonsukol",41.9686111,129.0841667
"yilaha",48.833333,125.166667
"awund",35.474953,69.871144
"negar khatun",35.1187,48.9255
"bucerias",18.35,-103.483333
"burtons shop",37.13,-81.4416667
"mudbidri",13.083333,74.983333
"yastiktepe",39.665249,39.264185
"puntong",5.0623,97.2205
"pano oulema",11.4,-4.2833333
"tatenka vtoraya",53.45,29.2
"al hajj mahdi al `ubayd",31.2,45.55
"malenzo",-7.954374,21.476036
"ban sop nong",19.381972,98.973834
"datangkeng",25.328773,115.187253
"gallingen",54.161117,20.828064
"castrovega de valmadrigal",42.323397,-5.286962
"amuarib",42.413117,46.84623
"buntrak kidul",-7.0928,108.9773
"chimoto",-12.4333333,27.8333333
"gredica",44.1911111,18.1230556
"osiek piaseczny",52.798767,19.940798
"nashlavcha",48.467222,27.584444
"longuro",1.766667,114.9
"dhani bakhsh banglani",28.369234,68.599885
"nam bawtaw",21.9333333,99.6666667
"arrunada",43.32084,-6.929395
"burbunu",35.987099,71.543099
"lojtved",55.098545,8.976111
"goroshkiv",49.24821,29.902702
"kichom",8.9347222,-13.1536111
"qal`at satyage",34.7166667,45.4666667
"zira nawan",31.135386,72.698942
"gumni",39.1458333,125.6313889
"schoonauwen",52.012533,5.175078
"gboga",6.85,2.85
"huajiangping",32.164421,107.218463
"korekozovo",54.320057,36.180709
"kawaharayama",31.333333,130.333333
"clear prairie",56.583333,-119.5
"bachunai",55.8666667,23.3333333
"hurstmonceaux",50.883333,0.333333
"kolongalona",14.0333333,0.1833333
"kampong banggol onggok",5.516667,100.716667
"bena-tshiloba",-6.416667,23.216667
"meladen",10.4166667,49.85
"xiamawo",29.062152,102.665456
"hidden cove number 3",40.6666667,-111.9233333
"kadukaso",-6.2944,105.991
"ouro leinde",9.2166667,14.05
"lupya",61.552479,48.318466
"carneda",42.466667,-8.116667
"mulyoagung kidul",-8.2036,112.8671
"suyari",35.669794,128.651543
"pyrkhovshchina",54.6333333,29.3833333
"balimila",18.25,82.133333
"slastorp",58.2,15.15
"yaqub shah basti",24.9956,67.047
"shilhin",12.5166667,54.3166667
"mantucclla",-13.5666667,-72.1833333
"akawi",-15.4666667,23.0666667
"ain et tine",33.5019444,35.6408333
"okletacko polje",44.052778,19.573889
"iriama",5.695502,5.716758
"bicorp",39.132148,-0.787202
"gross sauerken",53.826726,19.762146
"kaopaihsu",25.489589,115.608246
"nabhane",35.95,36.4166667
"latuda",39.7038889,-110.9452778
"tatta vasiran",31.641667,74.151389
"timoshikhina",57.46252,29.002426
"el mouagene",36.499444,8.265
"lazar bouga",39.3333333,22.45
"ozinkhi",51.1786,49.6769
"khan ahmad hesari",36.2,48.383333
"la comas",25.466667,-98.7
"ap thang binh",10.116667,106.033333
"basti chaudhary talib",29.151226,71.109314
